{
  "generated_at": "2025-09-05T12:24:50.034008",
  "total_restaurants": 7691,
  "restaurants": [
    {
      "name": "Central Restaurant",
      "lat": 51.6020306,
      "lon": -0.1935029,
      "address": "Address not available",
      "phone": "",
      "website": "",
      "cuisine": "",
      "opening_hours": "",
      "wheelchair_accessible": "unknown"
    },
    {
      "name": "Bold Food & Bar",
      "lat": 51.5649774,
      "lon": -0.140689,
      "address": "126, Dartmouth Park Hill, London, N19 5HS",
      "phone": "+447585 957 145",
      "website": "https://www.thehouselondon.co.uk/",
      "cuisine": "Pizza;mediterranean",
      "opening_hours": "Mo-Th 16:00-23:00; Fr-Sa 16:00-24:00; Su 12:00-23:00",
      "wheelchair_accessible": "unknown"
    },
    {
      "name": "Casuarina Tree",
      "lat": 51.3980144,
      "lon": -0.1722345,
      "address": "407, London Road, Mitcham, CR4 4BG",
      "phone": "",
      "website": "",
      "cuisine": "indian",
      "opening_hours": "",
      "wheelchair_accessible": "unknown"
    },
    {
      "name": "Old Tree Daiwan Bee",
      "lat": 51.5110542,
      "lon": -0.1325596,
      "address": "Address not available",
      "phone": "",
      "website": "",
      "cuisine": "taiwanese",
      "opening_hours": "",
      "wheelchair_accessible": "unknown"
    },
    {
      "name": "Cinnamon Lounge",
      "lat": 51.472105,
      "lon": -0.3284018,
      "address": "Address not available",
      "phone": "",
      "website": "",
      "cuisine": "indian",
      "opening_hours": "",
      "wheelchair_accessible": "unknown"
    },
    {
      "name": "The Royal",
      "lat": 51.4983082,
      "lon": -0.3266794,
      "address": "Boston Road, London, W7 2AX",
      "phone": "+44 20 8567 3711",
      "website": "https://www.harvester.co.uk/restaurants/london/theroyallondon",
      "cuisine": "american",
      "opening_hours": "Fr-Sa 09:00-23:00; Su-Th 09:00-22:00",
      "wheelchair_accessible": "unknown"
    },
    {
      "name": "Tratorria Raffaele",
      "lat": 51.4256431,
      "lon": -0.0487489,
      "address": "94, Sydenham Road, London, SE26 5JX",
      "phone": "+44 20 8778 6262",
      "website": "",
      "cuisine": "italian",
      "opening_hours": "",
      "wheelchair_accessible": "no"
    },
    {
      "name": "Bistrotheque",
      "lat": 51.5340961,
      "lon": -0.0560633,
      "address": "23-27, Wadeson Street, London, E2 9DR",
      "phone": "",
      "website": "",
      "cuisine": "",
      "opening_hours": "",
      "wheelchair_accessible": "unknown"
    },
    {
      "name": "Mithai Ghar",
      "lat": 51.517788,
      "lon": -0.0656989,
      "address": "133, Whitechapel Road, London, E1 1DT",
      "phone": "",
      "website": "",
      "cuisine": "",
      "opening_hours": "",
      "wheelchair_accessible": "unknown"
    },
    {
      "name": "A toca",
      "lat": 51.47539,
      "lon": -0.1312087,
      "address": "339-343, Wandsworth Road, London, SW8 2JH",
      "phone": "",
      "website": "",
      "cuisine": "portuguese",
      "opening_hours": "",
      "wheelchair_accessible": "unknown"
    },
    {
      "name": "Venus",
      "lat": 51.4177496,
      "lon": -0.1777821,
      "address": "12-14, Christchurch Road, London, SW19 2NX",
      "phone": "",
      "website": "",
      "cuisine": "",
      "opening_hours": "",
      "wheelchair_accessible": "unknown"
    },
    {
      "name": "Corleone",
      "lat": 51.4182745,
      "lon": -0.1782663,
      "address": "186A, High Street Colliers Wood, London, SW19 2BN",
      "phone": "",
      "website": "",
      "cuisine": "italian",
      "opening_hours": "",
      "wheelchair_accessible": "unknown"
    },
    {
      "name": "Nando's",
      "lat": 51.4136144,
      "lon": -0.1780875,
      "address": "Tandem Way, London, SW19 2TY",
      "phone": "",
      "website": "https://www.nandos.co.uk/restaurants/colliers-wood",
      "cuisine": "chicken;portuguese",
      "opening_hours": "",
      "wheelchair_accessible": "unknown"
    },
    {
      "name": "Alba",
      "lat": 51.4651993,
      "lon": -0.1291139,
      "address": "3, Bedford Road, London, SW4 7SH",
      "phone": "",
      "website": "",
      "cuisine": "pizza",
      "opening_hours": "",
      "wheelchair_accessible": "unknown"
    },
    {
      "name": "Ferndales",
      "lat": 51.4629835,
      "lon": -0.1239279,
      "address": "118, Ferndale Road, London, SW4 7SE",
      "phone": "",
      "website": "",
      "cuisine": "pizza",
      "opening_hours": "We-Su 18:00-22:00",
      "wheelchair_accessible": "unknown"
    },
    {
      "name": "Bon Gusto",
      "lat": 51.4992102,
      "lon": -0.1378188,
      "address": "75-76, Buckingham Gate, London, SW1E 6PD",
      "phone": "",
      "website": "",
      "cuisine": "italian",
      "opening_hours": "",
      "wheelchair_accessible": "unknown"
    },
    {
      "name": "Bank Restaurant & Bar",
      "lat": 51.4986304,
      "lon": -0.1372558,
      "address": "45, Buckingham Gate, London, SW1E 6BS",
      "phone": "+44 20 7630 6644",
      "website": "https://www.individualrestaurants.com/",
      "cuisine": "",
      "opening_hours": "",
      "wheelchair_accessible": "unknown"
    },
    {
      "name": "Spaghetti House",
      "lat": 51.5186204,
      "lon": -0.1214512,
      "address": "20, Sicilian Avenue, London, WC1A 2QD",
      "phone": "+44 20 7405 5215",
      "website": "https://www.spaghettihouse.co.uk/location/holborn/",
      "cuisine": "italian",
      "opening_hours": "",
      "wheelchair_accessible": "unknown"
    },
    {
      "name": "PizzaExpress",
      "lat": 51.4427534,
      "lon": -0.1667732,
      "address": "198-200, Trinity Road, London, SW17 7HR",
      "phone": "",
      "website": "https://www.pizzaexpress.com/wandsworth-trinity-road",
      "cuisine": "pizza",
      "opening_hours": "",
      "wheelchair_accessible": "unknown"
    },
    {
      "name": "Le Chamarel",
      "lat": 51.5896604,
      "lon": -0.105547,
      "address": "27, Turnpike Lane, London, N8 0EP",
      "phone": "",
      "website": "https://www.lechamarel.co.uk/",
      "cuisine": "mauritian",
      "opening_hours": "",
      "wheelchair_accessible": "unknown"
    },
    {
      "name": "Las Iguanas",
      "lat": 51.5055602,
      "lon": -0.1176655,
      "address": "Festival Terrace, London, SE1 8XX",
      "phone": "",
      "website": "https://www.iguanas.co.uk/restaurants/london-royal-festival-hall/",
      "cuisine": "brazilian",
      "opening_hours": "Mo-Th 11:00-22:30; Fr-Sa 11:00-23:00; Su 11:00-22:00",
      "wheelchair_accessible": "limited"
    },
    {
      "name": "Waterhouse",
      "lat": 51.5366022,
      "lon": -0.0789765,
      "address": "8-10, Orsman Road, London, N1 5QJ",
      "phone": "",
      "website": "",
      "cuisine": "",
      "opening_hours": "",
      "wheelchair_accessible": "yes"
    },
    {
      "name": "No. 32 The Old Town",
      "lat": 51.4631647,
      "lon": -0.1407101,
      "address": "32, The Pavement, London, SW4 0JE",
      "phone": "",
      "website": "",
      "cuisine": "",
      "opening_hours": "09:00 - 23:00",
      "wheelchair_accessible": "unknown"
    },
    {
      "name": "La Figa",
      "lat": 51.5101159,
      "lon": -0.0394594,
      "address": "45, Narrow Street, London, E14 8DX",
      "phone": "+44 20 7790 0077",
      "website": "https://www.lafigarestaurant.co.uk/",
      "cuisine": "italian",
      "opening_hours": "Mo-Sa 12:00-23:00, Sa 13:00-23:00, Su 13:00-22:30",
      "wheelchair_accessible": "unknown"
    },
    {
      "name": "Holy Cow",
      "lat": 51.5100931,
      "lon": -0.0387865,
      "address": "51, Narrow Street, London, E14 8DN",
      "phone": "0207 790 7688",
      "website": "https://www.holycowonline.com/locations/limehouse-canary-wharf-indian-restaurant/",
      "cuisine": "indian",
      "opening_hours": "Mo-Su 14:00-23:00",
      "wheelchair_accessible": "unknown"
    },
    {
      "name": "Goya",
      "lat": 51.4884009,
      "lon": -0.1374885,
      "address": "34, Lupus Street, London, SW1V 3EB",
      "phone": "",
      "website": "",
      "cuisine": "tapas",
      "opening_hours": "",
      "wheelchair_accessible": "unknown"
    },
    {
      "name": "Sketch",
      "lat": 51.5127342,
      "lon": -0.1414857,
      "address": "9, Conduit Street, London, W1S 2XD",
      "phone": "+44 20 7659 4500",
      "website": "https://sketch.london/",
      "cuisine": "",
      "opening_hours": "",
      "wheelchair_accessible": "no"
    },
    {
      "name": "The Full Monty",
      "lat": 51.52821,
      "lon": -0.0509194,
      "address": "254, Globe Road, London, E2 0JD",
      "phone": "",
      "website": "",
      "cuisine": "",
      "opening_hours": "",
      "wheelchair_accessible": "unknown"
    },
    {
      "name": "Tia Maria Bar & Kitchen",
      "lat": 51.4808939,
      "lon": -0.12483,
      "address": "126, South Lambeth Road, London, SW8 1RB",
      "phone": "+44 20 7622 3602",
      "website": "",
      "cuisine": "brazilian",
      "opening_hours": "Mo-Th, Su 12:00-00:00; Fr, Sa 12:00-01:00",
      "wheelchair_accessible": "no"
    },
    {
      "name": "Il Pirata London",
      "lat": 51.5032228,
      "lon": -0.0596251,
      "address": "81, Wapping High Street, London, E1W 2YN",
      "phone": "",
      "website": "",
      "cuisine": "italian",
      "opening_hours": "",
      "wheelchair_accessible": "yes"
    },
    {
      "name": "Giraffe",
      "lat": 51.5063119,
      "lon": -0.1171395,
      "address": "Riverside Level 1, London, SE1 8XX",
      "phone": "+44 20 7042 6900",
      "website": "https://www.giraffe.net/",
      "cuisine": "international;burger",
      "opening_hours": "Mo-Th 08:00-23:00;Fr 08:00-23:30;Sa 09:00-23:30;Su 09:00-22:30",
      "wheelchair_accessible": "unknown"
    },
    {
      "name": "PizzaExpress",
      "lat": 51.4888419,
      "lon": -0.137108,
      "address": "46, Moreton Street, London, SW1V 2PB",
      "phone": "",
      "website": "https://www.pizzaexpress.com/london-pimlico",
      "cuisine": "pizza",
      "opening_hours": "",
      "wheelchair_accessible": "unknown"
    },
    {
      "name": "Luppolo",
      "lat": 51.5767346,
      "lon": 0.0270735,
      "address": "34-38, High Street, London, E11 2RJ",
      "phone": "",
      "website": "https://luppolopizza.com/",
      "cuisine": "",
      "opening_hours": "",
      "wheelchair_accessible": "unknown"
    },
    {
      "name": "River View Restaurant",
      "lat": 51.505619,
      "lon": -0.054029,
      "address": "16, New Crane Place, London, E1W 3TU",
      "phone": "",
      "website": "http://www.riverview-restaurant.com/",
      "cuisine": "",
      "opening_hours": "",
      "wheelchair_accessible": "unknown"
    },
    {
      "name": "PizzaExpress",
      "lat": 51.5178558,
      "lon": -0.1187798,
      "address": "99, High Holborn, London, WC1V 6LF",
      "phone": "",
      "website": "https://www.pizzaexpress.com/london-high-holborn",
      "cuisine": "pizza",
      "opening_hours": "",
      "wheelchair_accessible": "unknown"
    },
    {
      "name": "Verdi's",
      "lat": 51.5222995,
      "lon": -0.0446566,
      "address": "237, Mile End Road, London, E1 4AA",
      "phone": "",
      "website": "",
      "cuisine": "",
      "opening_hours": "",
      "wheelchair_accessible": "unknown"
    },
    {
      "name": "Jabinjia Hotpot",
      "lat": 51.5271512,
      "lon": -0.0828862,
      "address": "5, Hoxton Market, London, N1 6HG",
      "phone": "",
      "website": "",
      "cuisine": "chinese",
      "opening_hours": "",
      "wheelchair_accessible": "unknown"
    },
    {
      "name": "PizzaExpress",
      "lat": 51.4872825,
      "lon": -0.1115445,
      "address": "316, Kennington Road, London, SE11 4LD",
      "phone": "+44 20 7820 3877",
      "website": "https://www.pizzaexpress.com/london-kennington-road",
      "cuisine": "pizza",
      "opening_hours": "Mo-We 11:30-22:00; Th-Sa 11:30-23:00; Su 11:30-22:00",
      "wheelchair_accessible": "no"
    },
    {
      "name": "Ta Ke",
      "lat": 51.5096682,
      "lon": -0.2862229,
      "address": "3-4, Grosvenor Parade, London, W5 3NN",
      "phone": "+44 20 8075 8877",
      "website": "https://www.take-sushi.co.uk/",
      "cuisine": "japanese;sushi",
      "opening_hours": "Mo-Su 12:00-22:30",
      "wheelchair_accessible": "unknown"
    },
    {
      "name": "Nando's",
      "lat": 51.5101708,
      "lon": -0.2879784,
      "address": "Address not available",
      "phone": "+44 20 8992 2290",
      "website": "https://www.nandos.co.uk/restaurants/ealing-common",
      "cuisine": "chicken;portuguese",
      "opening_hours": "Tu 11:30-19:00; We off; Th-Mo 11:30-22:00",
      "wheelchair_accessible": "yes"
    },
    {
      "name": "Lemonia",
      "lat": 51.5416421,
      "lon": -0.1570131,
      "address": "Address not available",
      "phone": "+44 20 7586 7454",
      "website": "https://www.lemonia.co.uk/",
      "cuisine": "greek",
      "opening_hours": "",
      "wheelchair_accessible": "yes"
    },
    {
      "name": "Il Posto",
      "lat": 51.4957287,
      "lon": -0.1419336,
      "address": "314-316, Vauxhall Bridge Road, London, SW1V 1AA",
      "phone": "",
      "website": "",
      "cuisine": "italian",
      "opening_hours": "",
      "wheelchair_accessible": "unknown"
    },
    {
      "name": "Memsaheb",
      "lat": 51.4955582,
      "lon": -0.0068108,
      "address": "65-67, Amsterdam Road, London, E14 3UU",
      "phone": "",
      "website": "https://memsahebe14.uk/home",
      "cuisine": "indian",
      "opening_hours": "Mo-Su 17:30-23:00",
      "wheelchair_accessible": "unknown"
    },
    {
      "name": "Aubaine",
      "lat": 51.5109108,
      "lon": -0.1393146,
      "address": "4, Heddon Street, London, W1B 4BS",
      "phone": "",
      "website": "https://aubaine.co.uk/locations/heddon-street/",
      "cuisine": "french",
      "opening_hours": "",
      "wheelchair_accessible": "unknown"
    },
    {
      "name": "The Brew House",
      "lat": 51.5717552,
      "lon": -0.1667879,
      "address": "Address not available",
      "phone": "",
      "website": "http://searcyskenwoodhouse.co.uk",
      "cuisine": "regional",
      "opening_hours": "Dec-Jan: Mo-Su 09:00-16:00; Feb-Mar: Mo-Su 09:00-17:00; Apr-Sep: Mo-Su 09:00-18:00; Oct-Nov: Mo-Su 09:00-17:00",
      "wheelchair_accessible": "unknown"
    },
    {
      "name": "Wraps and Wings",
      "lat": 51.5406572,
      "lon": 0.0021123,
      "address": "3, West Ham Lane, London, E15 4PH",
      "phone": "",
      "website": "",
      "cuisine": "",
      "opening_hours": "24/7",
      "wheelchair_accessible": "unknown"
    },
    {
      "name": "Clifton Restaurant",
      "lat": 51.4997405,
      "lon": -0.026204,
      "address": "32, Westferry Road, London, E14 8LW",
      "phone": "",
      "website": "",
      "cuisine": "",
      "opening_hours": "",
      "wheelchair_accessible": "unknown"
    },
    {
      "name": "Goodman",
      "lat": 51.5131214,
      "lon": -0.1422056,
      "address": "26, Maddox Street",
      "phone": "+44 20 7499 3776",
      "website": "https://www.goodmanrestaurants.com/",
      "cuisine": "steak_house",
      "opening_hours": "",
      "wheelchair_accessible": "yes"
    },
    {
      "name": "Mary's",
      "lat": 51.513393,
      "lon": -0.1423314,
      "address": "8-10, Pollen Street",
      "phone": "",
      "website": "https://www.pollenstreetsocial.com/",
      "cuisine": "",
      "opening_hours": "",
      "wheelchair_accessible": "limited"
    },
    {
      "name": "Uno",
      "lat": 51.4920195,
      "lon": -0.140075,
      "address": "1, Denbigh Street, London, SW1V 2HF",
      "phone": "",
      "website": "",
      "cuisine": "italian",
      "opening_hours": "",
      "wheelchair_accessible": "unknown"
    },
    {
      "name": "Kinkao Thai Restaurant",
      "lat": 51.4861623,
      "lon": -0.0136551,
      "address": "8-42, St. Davids Square, London, E14 3WA",
      "phone": "",
      "website": "",
      "cuisine": "thai",
      "opening_hours": "Mo-Th 12:00-15:00,17:30-23:00, Fr 12:00-15:00,17:30-24:00, Sa 12:00-24:00, Su 12:00-22:00",
      "wheelchair_accessible": "unknown"
    },
    {
      "name": "Maya Lounge",
      "lat": 51.6306596,
      "lon": -0.175384,
      "address": "1277, High Road, London, N20 9HS",
      "phone": "",
      "website": "",
      "cuisine": "lebanese",
      "opening_hours": "Su-Th 18:00-01:00, Fr-Sa 18:00-02:00",
      "wheelchair_accessible": "unknown"
    },
    {
      "name": "Satay Bar",
      "lat": 51.4614013,
      "lon": -0.11448,
      "address": "447, Coldharbour Lane, London, SW9 8LP",
      "phone": "",
      "website": "https://www.sataybar.co.uk/",
      "cuisine": "",
      "opening_hours": "Mo-Th 12:00-23:00; Fr 12:00-24:00; Sa 00:00-01:00,13:00-24:00; Su 00:00-01:00,13:00-23:00",
      "wheelchair_accessible": "unknown"
    },
    {
      "name": "Moo Cantina Pimlico",
      "lat": 51.49107,
      "lon": -0.135199,
      "address": "43, Vauxhall Bridge Road, London, SW1V 2TA",
      "phone": "",
      "website": "",
      "cuisine": "argentinian",
      "opening_hours": "",
      "wheelchair_accessible": "unknown"
    },
    {
      "name": "About Thyme",
      "lat": 51.4924729,
      "lon": -0.1399743,
      "address": "Address not available",
      "phone": "",
      "website": "",
      "cuisine": "",
      "opening_hours": "",
      "wheelchair_accessible": "unknown"
    },
    {
      "name": "Pimlico Tandoori",
      "lat": 51.4889995,
      "lon": -0.136883,
      "address": "38, Moreton Street, London, SW1V 2PB",
      "phone": "",
      "website": "",
      "cuisine": "indian",
      "opening_hours": "",
      "wheelchair_accessible": "unknown"
    },
    {
      "name": "Caffè Concerto",
      "lat": 51.4983961,
      "lon": -0.1664209,
      "address": "152, Brompton Road",
      "phone": "",
      "website": "https://www.caffeconcerto.co.uk/restaurant/knightsbridge.html",
      "cuisine": "",
      "opening_hours": "",
      "wheelchair_accessible": "unknown"
    },
    {
      "name": "Dilpasand",
      "lat": 51.514916,
      "lon": -0.0635587,
      "address": "111-113, Commercial Road, London, E1 1RD",
      "phone": "",
      "website": "",
      "cuisine": "",
      "opening_hours": "",
      "wheelchair_accessible": "unknown"
    },
    {
      "name": "No. Fifty Cheyne",
      "lat": 51.4833465,
      "lon": -0.1694677,
      "address": "50, Cheyne Walk",
      "phone": "+44 20 7376 8787",
      "website": "https://fiftycheyne.com/",
      "cuisine": "",
      "opening_hours": "",
      "wheelchair_accessible": "unknown"
    },
    {
      "name": "Bella Italia",
      "lat": 51.511834,
      "lon": -0.1876332,
      "address": "55, Queensway, London, W2 4QH",
      "phone": "+44 20 7792 2880",
      "website": "https://www.bellaitalia.co.uk/restaurants/london/queensway-55",
      "cuisine": "italian",
      "opening_hours": "Mo-Th 11:00-22:00; Fr-Sa 11:00-23:00; Su 11:00-22:00",
      "wheelchair_accessible": "unknown"
    },
    {
      "name": "garum",
      "lat": 51.5125046,
      "lon": -0.1874213,
      "address": "68, Queensway",
      "phone": "",
      "website": "",
      "cuisine": "italian",
      "opening_hours": "",
      "wheelchair_accessible": "unknown"
    },
    {
      "name": "PizzaExpress",
      "lat": 51.5056639,
      "lon": -0.1151021,
      "address": "Address not available",
      "phone": "",
      "website": "https://www.pizzaexpress.com/london-royal-festival-hall",
      "cuisine": "pizza",
      "opening_hours": "",
      "wheelchair_accessible": "yes"
    },
    {
      "name": "Honest Burgers",
      "lat": 51.5052621,
      "lon": -0.1167109,
      "address": "9, Festival Terrace, London, SE1 8XX",
      "phone": "+44 20 3146 6379",
      "website": "https://www.honestburgers.co.uk/locations/south-bank/",
      "cuisine": "burger",
      "opening_hours": "Mo-Tu 12:00-21:00; We-Th 12:00-22:00; Fr-Sa 12:00-22:30; Su 12:00-21:30",
      "wheelchair_accessible": "yes"
    },
    {
      "name": "Côte Brasserie",
      "lat": 51.5053303,
      "lon": -0.1169288,
      "address": "Belvedere Road, London, SE1 8XX",
      "phone": "+44 20 3846 5606",
      "website": "https://www.cote.co.uk/restaurant/royal-festival-hall",
      "cuisine": "french",
      "opening_hours": "Mo-Fr 09:00-24:00; Sa 10:00-24:00; Su 10:00-22:00",
      "wheelchair_accessible": "yes"
    },
    {
      "name": "Strada",
      "lat": 51.5058554,
      "lon": -0.1176662,
      "address": "Royal Festival Hall, London, SE1 8XX",
      "phone": "+44 20 7401 9126",
      "website": "https://www.strada.co.uk/italian-restaurant/royal-festival-hall",
      "cuisine": "italian",
      "opening_hours": "Mo-We 08:00-23:00; Th-Sa 08:00-24:00; Su 11:30-22:00",
      "wheelchair_accessible": "yes"
    },
    {
      "name": "So! Restaurant Bar",
      "lat": 51.5054491,
      "lon": 0.0261464,
      "address": "Royal Victoria Place, London, E16 1UQ",
      "phone": "",
      "website": "",
      "cuisine": "",
      "opening_hours": "",
      "wheelchair_accessible": "unknown"
    },
    {
      "name": "Sanh Hing",
      "lat": 51.4961898,
      "lon": -0.0824293,
      "address": "Address not available",
      "phone": "",
      "website": "",
      "cuisine": "chinese",
      "opening_hours": "",
      "wheelchair_accessible": "unknown"
    },
    {
      "name": "Tower Tandoori",
      "lat": 51.4961463,
      "lon": -0.0825176,
      "address": "74-76, Tower Bridge Road, London, SE1 4TP",
      "phone": "",
      "website": "",
      "cuisine": "indian",
      "opening_hours": "",
      "wheelchair_accessible": "unknown"
    },
    {
      "name": "Simply Indian",
      "lat": 51.5006223,
      "lon": -0.0914796,
      "address": "25, Tabard Street, London, SE1 4LA",
      "phone": "",
      "website": "",
      "cuisine": "",
      "opening_hours": "",
      "wheelchair_accessible": "unknown"
    },
    {
      "name": "Thai Thai Café",
      "lat": 51.4995651,
      "lon": -0.2645088,
      "address": "Address not available",
      "phone": "+44 20 8994 1093",
      "website": "",
      "cuisine": "thai",
      "opening_hours": "",
      "wheelchair_accessible": "unknown"
    },
    {
      "name": "Wagamama",
      "lat": 51.5057566,
      "lon": -0.1177658,
      "address": "Riverside Level, Royal Festival Hall, London, SE1 8XX",
      "phone": "+44 20 7021 0877",
      "website": "https://wagamama.com/restaurants/london/royal-festival-hall-southbank",
      "cuisine": "asian",
      "opening_hours": "Mo-Sa 11:00-23:00;Su 11:00-22:00",
      "wheelchair_accessible": "yes"
    },
    {
      "name": "Bodean's",
      "lat": 51.4383116,
      "lon": -0.1562741,
      "address": "Address not available",
      "phone": "",
      "website": "",
      "cuisine": "american",
      "opening_hours": "",
      "wheelchair_accessible": "unknown"
    },
    {
      "name": "Vinoteca Farringdon",
      "lat": 51.520045,
      "lon": -0.1018834,
      "address": "7, St. John Street, London",
      "phone": "",
      "website": "https://www.vinoteca.co.uk/",
      "cuisine": "",
      "opening_hours": "",
      "wheelchair_accessible": "unknown"
    },
    {
      "name": "The Cinnamon Club",
      "lat": 51.4975224,
      "lon": -0.129607,
      "address": "30, Great Smith Street, London, SW1P 3BU",
      "phone": "+44 20 7222 2555",
      "website": "http://www.cinnamonclub.com/",
      "cuisine": "indian;curry",
      "opening_hours": "",
      "wheelchair_accessible": "no"
    },
    {
      "name": "York & Albany",
      "lat": 51.5360507,
      "lon": -0.1464791,
      "address": "127-129, Parkway",
      "phone": "",
      "website": "https://www.gordonramsay.com/yorkandalbany",
      "cuisine": "",
      "opening_hours": "",
      "wheelchair_accessible": "yes"
    },
    {
      "name": "Yokoya",
      "lat": 51.5367912,
      "lon": -0.1420045,
      "address": "9A, Delancey Street",
      "phone": "+44 20 7388 8595",
      "website": "https://yokoya.co.uk/",
      "cuisine": "japanese",
      "opening_hours": "Mo-Th 18:00-22:30; Fr, Sa 18:00-00:30; Su 18:00-21:30",
      "wheelchair_accessible": "unknown"
    },
    {
      "name": "Al Arez Express",
      "lat": 51.5165605,
      "lon": -0.1648246,
      "address": "132, Edgware Road, London, W2 2HX",
      "phone": "+44 20 7724 8433",
      "website": "https://www.alarez.co.uk/",
      "cuisine": "lebanese",
      "opening_hours": "",
      "wheelchair_accessible": "unknown"
    },
    {
      "name": "Coq d'Argent",
      "lat": 51.513355,
      "lon": -0.0908549,
      "address": "1, Poultry, London, EC2R 8EJ",
      "phone": "",
      "website": "",
      "cuisine": "",
      "opening_hours": "",
      "wheelchair_accessible": "unknown"
    },
    {
      "name": "StreetXO",
      "lat": 51.5112833,
      "lon": -0.1413619,
      "address": "15, Old Burlington Street, London, W1S 2JR",
      "phone": "+44 20 3096 7555",
      "website": "https://streetxo.com/london/",
      "cuisine": "italian",
      "opening_hours": "",
      "wheelchair_accessible": "unknown"
    },
    {
      "name": "Napa",
      "lat": 51.4924822,
      "lon": -0.2780734,
      "address": "Address not available",
      "phone": "",
      "website": "",
      "cuisine": "",
      "opening_hours": "",
      "wheelchair_accessible": "unknown"
    },
    {
      "name": "Cucina China Buffet",
      "lat": 51.4935053,
      "lon": -0.2675256,
      "address": "Address not available",
      "phone": "",
      "website": "",
      "cuisine": "",
      "opening_hours": "",
      "wheelchair_accessible": "unknown"
    },
    {
      "name": "The Real Greek",
      "lat": 51.5080629,
      "lon": -0.0951957,
      "address": "2a, Southwark Bridge Road, London, SE1 9HA",
      "phone": "+44 20 7620 0162",
      "website": "https://www.therealgreek.com/restaurants/bankside/",
      "cuisine": "greek",
      "opening_hours": "Mo-Su 12:00-22:30",
      "wheelchair_accessible": "yes"
    },
    {
      "name": "PizzaExpress",
      "lat": 51.5081984,
      "lon": -0.096,
      "address": "24, New Globe Walk, London, SE1 9DS",
      "phone": "",
      "website": "https://www.pizzaexpress.com/london-bankside",
      "cuisine": "pizza",
      "opening_hours": "",
      "wheelchair_accessible": "yes"
    },
    {
      "name": "Wagamama",
      "lat": 51.5117911,
      "lon": -0.0931398,
      "address": "4, Great St. Thomas Apostle, London, EC4V 2BH",
      "phone": "+44 20 7248 5766",
      "website": "",
      "cuisine": "asian",
      "opening_hours": "Mo-Sa 11:00-22:00",
      "wheelchair_accessible": "unknown"
    },
    {
      "name": "PizzaExpress",
      "lat": 51.509793,
      "lon": -0.0803017,
      "address": "1, Byward Street, London, EC3R 5AS",
      "phone": "",
      "website": "https://www.pizzaexpress.com/london-tower-hill",
      "cuisine": "pizza",
      "opening_hours": "",
      "wheelchair_accessible": "yes"
    },
    {
      "name": "Kirin",
      "lat": 51.5112388,
      "lon": -0.0794148,
      "address": "14, New London Street, London, EC3R 7NA",
      "phone": "",
      "website": "",
      "cuisine": "",
      "opening_hours": "",
      "wheelchair_accessible": "unknown"
    },
    {
      "name": "Tavolino",
      "lat": 51.5053308,
      "lon": -0.0801739,
      "address": "2, More London Place",
      "phone": "",
      "website": "",
      "cuisine": "",
      "opening_hours": "",
      "wheelchair_accessible": "unknown"
    },
    {
      "name": "Gaucho",
      "lat": 51.5051331,
      "lon": -0.0803967,
      "address": "2, More London Riverside, London, SE1 2AP",
      "phone": "+44 20 7407 5222",
      "website": "https://gauchorestaurants.com/restaurants/tower-bridge/",
      "cuisine": "argentinian",
      "opening_hours": "",
      "wheelchair_accessible": "yes"
    },
    {
      "name": "Oxo Tower Restaurant",
      "lat": 51.5083936,
      "lon": -0.108242,
      "address": "8th floor, London, SE1 9PH",
      "phone": "",
      "website": "",
      "cuisine": "",
      "opening_hours": "",
      "wheelchair_accessible": "yes"
    },
    {
      "name": "Rio's Piri Piri",
      "lat": 51.5239089,
      "lon": -0.1670048,
      "address": "112, Lisson Grove, London, NW1 6UL",
      "phone": "",
      "website": "",
      "cuisine": "",
      "opening_hours": "",
      "wheelchair_accessible": "unknown"
    },
    {
      "name": "PizzaExpress",
      "lat": 51.5218536,
      "lon": -0.1575888,
      "address": "131-133, Baker Street, London, W1U 6SE",
      "phone": "",
      "website": "https://www.pizzaexpress.com/london-baker-street",
      "cuisine": "pizza",
      "opening_hours": "",
      "wheelchair_accessible": "limited"
    },
    {
      "name": "Ippudo",
      "lat": 51.5405064,
      "lon": -0.0957547,
      "address": "196, Essex Road, London",
      "phone": "",
      "website": "",
      "cuisine": "ramen",
      "opening_hours": "",
      "wheelchair_accessible": "unknown"
    },
    {
      "name": "Franco Manca",
      "lat": 51.5361636,
      "lon": -0.1038389,
      "address": "72, Upper Street, London, N1 0NY",
      "phone": "",
      "website": "https://www.francomanca.co.uk/restaurants/islington/",
      "cuisine": "pizza",
      "opening_hours": "",
      "wheelchair_accessible": "unknown"
    },
    {
      "name": "Wahaca",
      "lat": 51.5359926,
      "lon": -0.1039142,
      "address": "68, Upper Street, London, N1 0NY",
      "phone": "",
      "website": "",
      "cuisine": "mexican",
      "opening_hours": "",
      "wheelchair_accessible": "unknown"
    },
    {
      "name": "Sessions",
      "lat": 51.5365176,
      "lon": -0.1037374,
      "address": "Address not available",
      "phone": "",
      "website": "",
      "cuisine": "",
      "opening_hours": "",
      "wheelchair_accessible": "unknown"
    },
    {
      "name": "Isarn",
      "lat": 51.5385359,
      "lon": -0.1025179,
      "address": "119, Upper Street, London, N1 1QP",
      "phone": "+44 20 7424 5153",
      "website": "www.isarn.co.uk",
      "cuisine": "thai",
      "opening_hours": "",
      "wheelchair_accessible": "unknown"
    },
    {
      "name": "Terra Rossa",
      "lat": 51.539491,
      "lon": -0.1026162,
      "address": "Address not available",
      "phone": "",
      "website": "",
      "cuisine": "italian",
      "opening_hours": "",
      "wheelchair_accessible": "unknown"
    },
    {
      "name": "Le Mercury",
      "lat": 51.5397173,
      "lon": -0.1026393,
      "address": "140a, Upper Street, London, N1 1QY",
      "phone": "",
      "website": "https://www.lemercury.co.uk/",
      "cuisine": "french",
      "opening_hours": "",
      "wheelchair_accessible": "unknown"
    },
    {
      "name": "Street Burger",
      "lat": 51.5351424,
      "lon": -0.1039686,
      "address": "341, Upper Street, London, N1 0PB",
      "phone": "+44 20 7592 1355",
      "website": "https://www.gordonramsayrestaurants.com",
      "cuisine": "burger",
      "opening_hours": "Su-We 11:30-22:00; Tu-Sa 11:30-23:00",
      "wheelchair_accessible": "unknown"
    },
    {
      "name": "Thai Square",
      "lat": 51.5348703,
      "lon": -0.1041977,
      "address": "347-349, Upper Street, London, N1 0PD",
      "phone": "+44 20 7704 2000",
      "website": "https://thaisq.com/restaurants/islington/",
      "cuisine": "thai",
      "opening_hours": "Mo-Th 12:00-15:00,17:30-22:00; Fr 12:00-15:00,17:30-23:00; Sa 12:00-23:00; Su 12:00-22:00",
      "wheelchair_accessible": "unknown"
    },
    {
      "name": "PizzaExpress",
      "lat": 51.535348,
      "lon": -0.1037375,
      "address": "335, Upper Street",
      "phone": "",
      "website": "https://www.pizzaexpress.com/london-islington",
      "cuisine": "pizza",
      "opening_hours": "",
      "wheelchair_accessible": "unknown"
    },
    {
      "name": "Bellanger",
      "lat": 51.5365453,
      "lon": -0.1026836,
      "address": "9, Islington Green, London, N1 2XH",
      "phone": "",
      "website": "",
      "cuisine": "french",
      "opening_hours": "Mo-Sa 08:00-00:00, Su 08:00-22:30",
      "wheelchair_accessible": "unknown"
    },
    {
      "name": "Nando's",
      "lat": 51.5370798,
      "lon": -0.1029125,
      "address": "Address not available",
      "phone": "",
      "website": "https://www.nandos.co.uk/restaurants/islington",
      "cuisine": "chicken;portuguese",
      "opening_hours": "",
      "wheelchair_accessible": "limited"
    },
    {
      "name": "Carluccio's",
      "lat": 51.5379933,
      "lon": -0.1022755,
      "address": "305-307, Upper Street, London, N1 2TU",
      "phone": "",
      "website": "",
      "cuisine": "italian",
      "opening_hours": "",
      "wheelchair_accessible": "unknown"
    },
    {
      "name": "Hong Kong Restaurant",
      "lat": 51.5389621,
      "lon": -0.1021021,
      "address": "301, Upper Street, London, N1 2TU",
      "phone": "+44 02045373557",
      "website": "https://www.hkcuisine.co.uk/",
      "cuisine": "chinese",
      "opening_hours": "Mo-Su 12:00-23:00",
      "wheelchair_accessible": "unknown"
    },
    {
      "name": "Al Dente",
      "lat": 51.492946,
      "lon": -0.1763505,
      "address": "65, Old Brompton Road",
      "phone": "",
      "website": "",
      "cuisine": "italian",
      "opening_hours": "",
      "wheelchair_accessible": "unknown"
    },
    {
      "name": "Gỗ",
      "lat": 51.4931045,
      "lon": -0.1760492,
      "address": "53, Old Brompton Road",
      "phone": "+44 20 7589 6432",
      "website": "https://vietnamfood.co.uk/go-viet/",
      "cuisine": "vietnamese",
      "opening_hours": "",
      "wheelchair_accessible": "unknown"
    },
    {
      "name": "Papa Roma",
      "lat": 51.4937726,
      "lon": -0.175681,
      "address": "6, Glendower Place",
      "phone": "+44 20 7225 2407",
      "website": "https://papparoma.com/",
      "cuisine": "pizza",
      "opening_hours": "",
      "wheelchair_accessible": "unknown"
    },
    {
      "name": "Pravaas",
      "lat": 51.4935463,
      "lon": -0.1757732,
      "address": "3, Glendower Place",
      "phone": "",
      "website": "",
      "cuisine": "indian",
      "opening_hours": "",
      "wheelchair_accessible": "unknown"
    },
    {
      "name": "Wright Brothers",
      "lat": 51.4931264,
      "lon": -0.1764889,
      "address": "56, Old Brompton Road",
      "phone": "+44 20 7581 0131",
      "website": "https://thewrightbrothers.co.uk/restaurant/south-kensington/",
      "cuisine": "seafood",
      "opening_hours": "",
      "wheelchair_accessible": "unknown"
    },
    {
      "name": "Bella Italia",
      "lat": 51.4930693,
      "lon": -0.1766099,
      "address": "60, Old Brompton Road",
      "phone": "+44 20 7584 4028",
      "website": "https://www.bellaitalia.co.uk/restaurants/london/south-kensington",
      "cuisine": "italian",
      "opening_hours": "Mo-Th 11:00-22:00; Fr-Sa 11:00-23:00; Su 11:00-22:00",
      "wheelchair_accessible": "unknown"
    },
    {
      "name": "Wagamama",
      "lat": 51.5402228,
      "lon": -0.1452722,
      "address": "Address not available",
      "phone": "",
      "website": "https://wagamama.com/restaurants/london/camden",
      "cuisine": "asian",
      "opening_hours": "",
      "wheelchair_accessible": "yes"
    },
    {
      "name": "La Rascasse",
      "lat": 51.4078361,
      "lon": -0.0251819,
      "address": "Address not available",
      "phone": "",
      "website": "",
      "cuisine": "",
      "opening_hours": "",
      "wheelchair_accessible": "unknown"
    },
    {
      "name": "Risto",
      "lat": 51.406701,
      "lon": -0.0315118,
      "address": "Address not available",
      "phone": "+44 20 8663 0881",
      "website": "",
      "cuisine": "italian",
      "opening_hours": "",
      "wheelchair_accessible": "unknown"
    },
    {
      "name": "Scalini",
      "lat": 51.4959354,
      "lon": -0.1648778,
      "address": "1-3, Walton Street",
      "phone": "+44 20 7225 2301",
      "website": "https://scalinilondon.co.uk/",
      "cuisine": "italian",
      "opening_hours": "",
      "wheelchair_accessible": "unknown"
    },
    {
      "name": "Franco Manca",
      "lat": 51.5025513,
      "lon": -0.108402,
      "address": "77 - 81, The Cut, London, SE1 8LL",
      "phone": "",
      "website": "https://www.francomanca.co.uk/restaurants/waterloo/",
      "cuisine": "pizza",
      "opening_hours": "",
      "wheelchair_accessible": "unknown"
    },
    {
      "name": "Nando's",
      "lat": 51.4634939,
      "lon": -0.1329449,
      "address": "59-63, Clapham High Street, London, SW4 7TG",
      "phone": "",
      "website": "https://www.nandos.co.uk/restaurants/clapham-high-street",
      "cuisine": "chicken;portuguese",
      "opening_hours": "",
      "wheelchair_accessible": "yes"
    },
    {
      "name": "Buna Restaurant",
      "lat": 51.5478134,
      "lon": -0.1062903,
      "address": "Holloway Road, London",
      "phone": "",
      "website": "",
      "cuisine": "",
      "opening_hours": "",
      "wheelchair_accessible": "no"
    },
    {
      "name": "Wagamama",
      "lat": 51.5343163,
      "lon": -0.1064172,
      "address": "40, Parkfield Street, London, N1 0PS",
      "phone": "",
      "website": "https://wagamama.com/restaurants/london/islington",
      "cuisine": "asian",
      "opening_hours": "Mo-Th 11:00-22:00; Fr,Sa 11:00-23:00; Su 11:00-22:00",
      "wheelchair_accessible": "yes"
    },
    {
      "name": "Jones & Sons",
      "lat": 51.5340057,
      "lon": -0.1058677,
      "address": "Address not available",
      "phone": "",
      "website": "",
      "cuisine": "",
      "opening_hours": "",
      "wheelchair_accessible": "unknown"
    },
    {
      "name": "Lugana",
      "lat": 51.3989089,
      "lon": -0.0405328,
      "address": "8, Eden Park Avenue, Beckenham, BR3 3HN",
      "phone": "+44 20 8650 3959",
      "website": "https://restaurantlugana.co.uk",
      "cuisine": "italian",
      "opening_hours": "Mo 12:00-14:30, 18:00-21:00; Tu-Fr 12:00-14:30, 18:00-22:00; Sa 12:00-22:00; Su 12:00-20:00",
      "wheelchair_accessible": "unknown"
    },
    {
      "name": "Ember",
      "lat": 51.3989174,
      "lon": -0.041254,
      "address": "145-147, Croydon Road, Beckenham, BR3 3RB",
      "phone": "+44 20 3723 5620",
      "website": "https://www.embersteakhouse.co.uk/",
      "cuisine": "steak_house",
      "opening_hours": "Tu-Th 12:00-22:30; Fr-Sa 12:00-23:30; Su 12:00-22:00",
      "wheelchair_accessible": "unknown"
    },
    {
      "name": "Rousillon",
      "lat": 51.4897406,
      "lon": -0.1515258,
      "address": "Address not available",
      "phone": "",
      "website": "",
      "cuisine": "french",
      "opening_hours": "",
      "wheelchair_accessible": "unknown"
    },
    {
      "name": "Namaste Holborn",
      "lat": 51.5206484,
      "lon": -0.1212446,
      "address": "33, Boswell Street, London, WC1N 3BP",
      "phone": "+44 20 7242 2434",
      "website": "https://namasteholborn.com",
      "cuisine": "indian",
      "opening_hours": "Mo-Su 10:00-21:00",
      "wheelchair_accessible": "unknown"
    },
    {
      "name": "Le Vacherin",
      "lat": 51.4963152,
      "lon": -0.26436,
      "address": "Address not available",
      "phone": "",
      "website": "",
      "cuisine": "french",
      "opening_hours": "",
      "wheelchair_accessible": "unknown"
    },
    {
      "name": "Izgara",
      "lat": 51.6305239,
      "lon": -0.1747593,
      "address": "1274, High Road, London, N20 9HH",
      "phone": "+44 20 8445 2196",
      "website": "https://izgararestaurant.com/",
      "cuisine": "turkish",
      "opening_hours": "Mo-Su 12:00-23:00",
      "wheelchair_accessible": "unknown"
    },
    {
      "name": "The Shell",
      "lat": 51.520761,
      "lon": -0.1230089,
      "address": "Address not available",
      "phone": "",
      "website": "",
      "cuisine": "",
      "opening_hours": "Mo-Sa 12:00-23:00; Su 12:00-22:00",
      "wheelchair_accessible": "unknown"
    },
    {
      "name": "Unnamed Restaurant",
      "lat": 51.5205849,
      "lon": -0.1227098,
      "address": "Address not available",
      "phone": "",
      "website": "",
      "cuisine": "",
      "opening_hours": "",
      "wheelchair_accessible": "unknown"
    },
    {
      "name": "Má Là",
      "lat": 51.4967352,
      "lon": -0.130632,
      "address": "37, Monck Street, London, SW1P 2BL",
      "phone": "",
      "website": "",
      "cuisine": "chinese",
      "opening_hours": "Tu-Fr 12:00-14:30,17:30-22:30; Mo off; Sa 12:00-22:30; Su 16:00-22:00",
      "wheelchair_accessible": "unknown"
    },
    {
      "name": "WF Catering at Jenny Hammond Primary School",
      "lat": 51.5549347,
      "lon": 0.0080113,
      "address": "Worsley Road, London, E11 3JN",
      "phone": "",
      "website": "",
      "cuisine": "",
      "opening_hours": "",
      "wheelchair_accessible": "unknown"
    },
    {
      "name": "Pastaio",
      "lat": 51.5129035,
      "lon": -0.1390316,
      "address": "19, Ganton Street, London, W1F 7BU",
      "phone": "",
      "website": "https://www.pastaio.london/",
      "cuisine": "italian",
      "opening_hours": "",
      "wheelchair_accessible": "unknown"
    },
    {
      "name": "Saigon Saigon",
      "lat": 51.4933414,
      "lon": -0.2406865,
      "address": "313-317, King Street, London, W6 9NH",
      "phone": "",
      "website": "",
      "cuisine": "vietnamese",
      "opening_hours": "",
      "wheelchair_accessible": "unknown"
    },
    {
      "name": "Tosa",
      "lat": 51.493575,
      "lon": -0.2430575,
      "address": "Address not available",
      "phone": "",
      "website": "",
      "cuisine": "japanese",
      "opening_hours": "",
      "wheelchair_accessible": "unknown"
    },
    {
      "name": "Fait Maison",
      "lat": 51.4997397,
      "lon": -0.2383387,
      "address": "245, Goldhawk Road",
      "phone": "+44 20 8222 8755",
      "website": "https://www.fait-maison.co.uk/",
      "cuisine": "",
      "opening_hours": "",
      "wheelchair_accessible": "unknown"
    },
    {
      "name": "Morinoya",
      "lat": 51.4940378,
      "lon": -0.1409348,
      "address": "1, Gillingham Street, London, SW1V 1HN",
      "phone": "",
      "website": "",
      "cuisine": "sushi",
      "opening_hours": "",
      "wheelchair_accessible": "unknown"
    },
    {
      "name": "La Poule au Pot",
      "lat": 51.4909877,
      "lon": -0.1525987,
      "address": "231, Ebury Street, London, SW1W 8UT",
      "phone": "",
      "website": "",
      "cuisine": "french",
      "opening_hours": "",
      "wheelchair_accessible": "unknown"
    },
    {
      "name": "Busaba",
      "lat": 51.5195455,
      "lon": -0.1325118,
      "address": "22, Store Street, London, WC1E 7DF",
      "phone": "",
      "website": "https://www.busaba.com/",
      "cuisine": "thai",
      "opening_hours": "",
      "wheelchair_accessible": "no"
    },
    {
      "name": "Bung Hole Cellars",
      "lat": 51.518344,
      "lon": -0.1153178,
      "address": "Address not available",
      "phone": "",
      "website": "",
      "cuisine": "",
      "opening_hours": "",
      "wheelchair_accessible": "unknown"
    },
    {
      "name": "Milbank Spice",
      "lat": 51.4902186,
      "lon": -0.1323749,
      "address": "34-38, Vauxhall Bridge Road, London, SW1V 2RY",
      "phone": "",
      "website": "",
      "cuisine": "indian",
      "opening_hours": "",
      "wheelchair_accessible": "unknown"
    },
    {
      "name": "Ping Pong",
      "lat": 51.5132553,
      "lon": -0.0947404,
      "address": "1, Bread Street, London, EC4M 9BE",
      "phone": "",
      "website": "",
      "cuisine": "",
      "opening_hours": "",
      "wheelchair_accessible": "yes"
    },
    {
      "name": "Thai Square",
      "lat": 51.5118712,
      "lon": -0.0937202,
      "address": "1, Great St. Thomas Apostle, London, EC4V 2BH",
      "phone": "",
      "website": "",
      "cuisine": "",
      "opening_hours": "",
      "wheelchair_accessible": "unknown"
    },
    {
      "name": "Arments Pie & Mash",
      "lat": 51.4843538,
      "lon": -0.0929878,
      "address": "7-9, Westmoreland Road, London",
      "phone": "+44 20 7703 4974",
      "website": "https://armentspieandmash.com/",
      "cuisine": "pie_and_mash",
      "opening_hours": "Tu-Fr 10:30-16:00; Sa 10:30-17:00",
      "wheelchair_accessible": "unknown"
    },
    {
      "name": "K & F Restaurant",
      "lat": 51.483678,
      "lon": -0.093956,
      "address": "Address not available",
      "phone": "",
      "website": "",
      "cuisine": "ethiopian",
      "opening_hours": "",
      "wheelchair_accessible": "unknown"
    },
    {
      "name": "Wahaca",
      "lat": 51.5257393,
      "lon": -0.0840084,
      "address": "140, Tabernacle Street, London, EC2A 4SD",
      "phone": "+44 20 3889 0483",
      "website": "",
      "cuisine": "mexican",
      "opening_hours": "Tu-Sa 12:00-22:00; Su,Mo 12:00-21:00",
      "wheelchair_accessible": "limited"
    },
    {
      "name": "Cataleya Resto & Lounge",
      "lat": 51.6272874,
      "lon": -0.1256466,
      "address": "52, High Street, London, N14 6EB",
      "phone": "",
      "website": "",
      "cuisine": "",
      "opening_hours": "",
      "wheelchair_accessible": "unknown"
    },
    {
      "name": "Le Sacré Coeur",
      "lat": 51.5376283,
      "lon": -0.103591,
      "address": "18, Theberton Street, London, N1 0QX",
      "phone": "",
      "website": "https://lesacrecoeurbistro.co.uk/",
      "cuisine": "french",
      "opening_hours": "",
      "wheelchair_accessible": "unknown"
    },
    {
      "name": "The Skinny Kitchen",
      "lat": 51.5354618,
      "lon": -0.1050339,
      "address": "52, Upper Street, London, N1 0PN",
      "phone": "",
      "website": "",
      "cuisine": "",
      "opening_hours": "",
      "wheelchair_accessible": "unknown"
    },
    {
      "name": "Vigata",
      "lat": 51.5362614,
      "lon": -0.1068254,
      "address": "Address not available",
      "phone": "",
      "website": "",
      "cuisine": "italian",
      "opening_hours": "",
      "wheelchair_accessible": "unknown"
    },
    {
      "name": "Kilis",
      "lat": 51.5376299,
      "lon": -0.1030744,
      "address": "4, Theberton Street, London, N1 0QX",
      "phone": "",
      "website": "https://www.kilis.co.uk/",
      "cuisine": "turkish",
      "opening_hours": "",
      "wheelchair_accessible": "no"
    },
    {
      "name": "Rosa's Thai Cafe",
      "lat": 51.5376312,
      "lon": -0.1031478,
      "address": "6, Theberton Street, London, N1 0QX",
      "phone": "",
      "website": "",
      "cuisine": "thai",
      "opening_hours": "",
      "wheelchair_accessible": "no"
    },
    {
      "name": "Mem & Laz",
      "lat": 51.5376287,
      "lon": -0.1032571,
      "address": "8, Theberton Street, London, N1 0QX",
      "phone": "+44 20 7704 9089",
      "website": "https://www.memlaz.co.uk/",
      "cuisine": "mediterranean",
      "opening_hours": "",
      "wheelchair_accessible": "unknown"
    },
    {
      "name": "Gallipoli Bistro",
      "lat": 51.5376616,
      "lon": -0.1029448,
      "address": "102, Upper Street, London, N1 1QP",
      "phone": "+44 20 7359 0630",
      "website": "https://gallipolicafe.co.uk/",
      "cuisine": "turkish;mediterranean",
      "opening_hours": "Mo-Fr 11:00-23:00; Sa 09:30-00:00; Su 10:00-23:00",
      "wheelchair_accessible": "no"
    },
    {
      "name": "Antonio's",
      "lat": 51.5391936,
      "lon": -0.1028456,
      "address": "Address not available",
      "phone": "",
      "website": "",
      "cuisine": "italian",
      "opening_hours": "",
      "wheelchair_accessible": "unknown"
    },
    {
      "name": "Pera",
      "lat": 51.5412618,
      "lon": -0.103042,
      "address": "Address not available",
      "phone": "",
      "website": "",
      "cuisine": "",
      "opening_hours": "",
      "wheelchair_accessible": "unknown"
    },
    {
      "name": "VQ",
      "lat": 51.5415596,
      "lon": -0.1031021,
      "address": "Address not available",
      "phone": "",
      "website": "",
      "cuisine": "",
      "opening_hours": "",
      "wheelchair_accessible": "unknown"
    },
    {
      "name": "The Blue Legume",
      "lat": 51.5416152,
      "lon": -0.1031181,
      "address": "177, Upper Street, London, N1 1RG",
      "phone": "",
      "website": "http://www.thebluelegume.co.uk/",
      "cuisine": "",
      "opening_hours": "",
      "wheelchair_accessible": "yes"
    },
    {
      "name": "Santa Maria",
      "lat": 51.542405,
      "lon": -0.1032134,
      "address": "189, Upper Street, London, N1 1RQ",
      "phone": "",
      "website": "https://www.santamariapizzeria.com/",
      "cuisine": "pizza",
      "opening_hours": "",
      "wheelchair_accessible": "unknown"
    },
    {
      "name": "Gem",
      "lat": 51.5428465,
      "lon": -0.1028704,
      "address": "265, Upper Street, London, N1 2UQ",
      "phone": "",
      "website": "https://gemrestaurant.org.uk/",
      "cuisine": "kurdish",
      "opening_hours": "",
      "wheelchair_accessible": "unknown"
    },
    {
      "name": "La Pasta",
      "lat": 51.54651,
      "lon": -0.104055,
      "address": "17-19, Highbury Corner, London, N5 1RA",
      "phone": "",
      "website": "",
      "cuisine": "italian",
      "opening_hours": "",
      "wheelchair_accessible": "unknown"
    },
    {
      "name": "Trevi",
      "lat": 51.546677,
      "lon": -0.10382,
      "address": "16-18, Highbury Corner, London, N5 1RA",
      "phone": "",
      "website": "",
      "cuisine": "sandwich",
      "opening_hours": "",
      "wheelchair_accessible": "no"
    },
    {
      "name": "Unnamed Restaurant",
      "lat": 51.5441568,
      "lon": 0.0494918,
      "address": "Address not available",
      "phone": "",
      "website": "",
      "cuisine": "",
      "opening_hours": "",
      "wheelchair_accessible": "unknown"
    },
    {
      "name": "Unnamed Restaurant",
      "lat": 51.5450375,
      "lon": 0.0492343,
      "address": "Address not available",
      "phone": "",
      "website": "",
      "cuisine": "",
      "opening_hours": "",
      "wheelchair_accessible": "unknown"
    },
    {
      "name": "NONÓS",
      "lat": 51.5281039,
      "lon": -0.125102,
      "address": "114, Judd Street, London, WC1H 9NT",
      "phone": "",
      "website": "",
      "cuisine": "greek",
      "opening_hours": "",
      "wheelchair_accessible": "unknown"
    },
    {
      "name": "PizzaExpress",
      "lat": 51.5283992,
      "lon": -0.1273566,
      "address": "93, Euston Road, London, NW1 2RA",
      "phone": "",
      "website": "https://www.pizzaexpress.com/london-euston-road",
      "cuisine": "pizza",
      "opening_hours": "Mo,Tu 11:31-23:00, We-Fr 11:30-23:30, Sa,Su 11:30-23:00",
      "wheelchair_accessible": "yes"
    },
    {
      "name": "Loman Cafe Bistro",
      "lat": 51.5434687,
      "lon": -0.1131598,
      "address": "Address not available",
      "phone": "",
      "website": "",
      "cuisine": "",
      "opening_hours": "",
      "wheelchair_accessible": "unknown"
    },
    {
      "name": "Lauderdale House Restaurant",
      "lat": 51.5693661,
      "lon": -0.1433914,
      "address": "Address not available",
      "phone": "",
      "website": "",
      "cuisine": "",
      "opening_hours": "",
      "wheelchair_accessible": "unknown"
    },
    {
      "name": "Tasty Spice",
      "lat": 51.5420814,
      "lon": -0.1174491,
      "address": "Address not available",
      "phone": "",
      "website": "",
      "cuisine": "indian",
      "opening_hours": "",
      "wheelchair_accessible": "unknown"
    },
    {
      "name": "Best Taste",
      "lat": 51.5421274,
      "lon": -0.1174507,
      "address": "Address not available",
      "phone": "",
      "website": "",
      "cuisine": "caribbean",
      "opening_hours": "",
      "wheelchair_accessible": "unknown"
    },
    {
      "name": "Didar",
      "lat": 51.5424207,
      "lon": -0.1175004,
      "address": "347, Caledonian Road, London, N1 1DW",
      "phone": "",
      "website": "",
      "cuisine": "tandoori",
      "opening_hours": "",
      "wheelchair_accessible": "unknown"
    },
    {
      "name": "Kokeb",
      "lat": 51.5466884,
      "lon": -0.115721,
      "address": "Address not available",
      "phone": "",
      "website": "",
      "cuisine": "ethiopian",
      "opening_hours": "",
      "wheelchair_accessible": "unknown"
    },
    {
      "name": "Santa Maria del Sur",
      "lat": 51.4701876,
      "lon": -0.1496829,
      "address": "129A, Queenstown Road, London, SW8 3RH",
      "phone": "",
      "website": "",
      "cuisine": "argentinian",
      "opening_hours": "",
      "wheelchair_accessible": "yes"
    },
    {
      "name": "Unnamed Restaurant",
      "lat": 51.5393844,
      "lon": 0.0509186,
      "address": "Address not available",
      "phone": "",
      "website": "",
      "cuisine": "",
      "opening_hours": "",
      "wheelchair_accessible": "unknown"
    },
    {
      "name": "Indian YMCA",
      "lat": 51.5227666,
      "lon": -0.1389599,
      "address": "41, Fitzroy Street, London, W1T 6AQ",
      "phone": "+44 20 7387 0411",
      "website": "https://www.indianymca.org/our-restaurant/",
      "cuisine": "indian",
      "opening_hours": "Mo-Fr 07:30-09:15, 12:00-15:00; Sa-Su 07:30-09:15, 12:00-14:00",
      "wheelchair_accessible": "no"
    },
    {
      "name": "Chennai Dosa",
      "lat": 51.5381578,
      "lon": 0.0512763,
      "address": "177, High Street North, London, E6 1JB",
      "phone": "",
      "website": "",
      "cuisine": "",
      "opening_hours": "",
      "wheelchair_accessible": "unknown"
    },
    {
      "name": "Schnitzel Heaven",
      "lat": 51.5290103,
      "lon": -0.0837544,
      "address": "57, Pitfield Street, London, N1 6BU",
      "phone": "info@schnitzelheaven.co.uk",
      "website": "https://www.schnitzelheaven.co.uk",
      "cuisine": "austrian;german",
      "opening_hours": "",
      "wheelchair_accessible": "unknown"
    },
    {
      "name": "Basilico",
      "lat": 51.5324533,
      "lon": -0.1111751,
      "address": "Address not available",
      "phone": "",
      "website": "",
      "cuisine": "pizza",
      "opening_hours": "",
      "wheelchair_accessible": "unknown"
    },
    {
      "name": "Frederick's",
      "lat": 51.5343313,
      "lon": -0.1042757,
      "address": "106, Islington High Street, London, N1 8EG",
      "phone": "+44 20 7359 2888",
      "website": "https://www.fredericks.co.uk",
      "cuisine": "Modern european",
      "opening_hours": "",
      "wheelchair_accessible": "unknown"
    },
    {
      "name": "The Diner",
      "lat": 51.5367673,
      "lon": -0.1014736,
      "address": "21, Essex Road, London",
      "phone": "+44 20 7226 3272",
      "website": "",
      "cuisine": "burger",
      "opening_hours": "",
      "wheelchair_accessible": "yes"
    },
    {
      "name": "Mega Bite Cafe",
      "lat": 51.5539104,
      "lon": -0.1104328,
      "address": "Address not available",
      "phone": "",
      "website": "",
      "cuisine": "chinese",
      "opening_hours": "",
      "wheelchair_accessible": "unknown"
    },
    {
      "name": "Mugen",
      "lat": 51.5195377,
      "lon": -0.1093681,
      "address": "Address not available",
      "phone": "+44 20 7404 9665",
      "website": "http://www.mugenholdings.com/",
      "cuisine": "japanese",
      "opening_hours": "Mo-Fr 12:00-15:00,18:00-23:00; Sa 17:30-22:00",
      "wheelchair_accessible": "unknown"
    },
    {
      "name": "PizzaExpress",
      "lat": 51.5169781,
      "lon": -0.1076198,
      "address": "1, New Fetter Lane, London, EC4A 1AN",
      "phone": "",
      "website": "",
      "cuisine": "pizza",
      "opening_hours": "",
      "wheelchair_accessible": "unknown"
    },
    {
      "name": "The Chancery",
      "lat": 51.5165567,
      "lon": -0.1110982,
      "address": "Address not available",
      "phone": "",
      "website": "",
      "cuisine": "",
      "opening_hours": "",
      "wheelchair_accessible": "unknown"
    },
    {
      "name": "Samurai",
      "lat": 51.5177803,
      "lon": -0.1199798,
      "address": "Address not available",
      "phone": "",
      "website": "",
      "cuisine": "japanese",
      "opening_hours": "",
      "wheelchair_accessible": "unknown"
    },
    {
      "name": "Sushi Hiroba",
      "lat": 51.516238,
      "lon": -0.1192595,
      "address": "50-54, Kingsway, London, WC2B 6EP",
      "phone": "",
      "website": "",
      "cuisine": "japanese",
      "opening_hours": "Mo-Th 12:00-15:00,18:00-23:00; Fr 12:00-15:00,18:00-23:30; Sa 18:00-23:00; Su, PH 18:00-22:30",
      "wheelchair_accessible": "unknown"
    },
    {
      "name": "Yauatcha",
      "lat": 51.5136681,
      "lon": -0.1351842,
      "address": "15-17, Broadwick Street, London",
      "phone": "",
      "website": "",
      "cuisine": "Asian Fusion",
      "opening_hours": "",
      "wheelchair_accessible": "yes"
    },
    {
      "name": "Vivat Bacchus",
      "lat": 51.5055547,
      "lon": -0.0848633,
      "address": "4, Hayes Lane",
      "phone": "",
      "website": "https://www.vivatbacchus.co.uk/",
      "cuisine": "",
      "opening_hours": "",
      "wheelchair_accessible": "yes"
    },
    {
      "name": "The Resto",
      "lat": 51.5463754,
      "lon": -0.1005934,
      "address": "276, St. Paul's Road, London, N1 2LH",
      "phone": "",
      "website": "",
      "cuisine": "",
      "opening_hours": "",
      "wheelchair_accessible": "unknown"
    },
    {
      "name": "Prawn on the Lawn",
      "lat": 51.5462567,
      "lon": -0.1012753,
      "address": "292-294, St. Paul's Road, London, N1 2LH",
      "phone": "",
      "website": "https://prawnonthelawn.com/",
      "cuisine": "seafood",
      "opening_hours": "",
      "wheelchair_accessible": "unknown"
    },
    {
      "name": "Jam-1",
      "lat": 51.4626337,
      "lon": -0.1757345,
      "address": "116, Plough Road, London, SW11 2AL",
      "phone": "",
      "website": "",
      "cuisine": "caribbean",
      "opening_hours": "",
      "wheelchair_accessible": "unknown"
    },
    {
      "name": "Gustoso",
      "lat": 51.49366,
      "lon": -0.1385979,
      "address": "35, Willow Place, London, SW1P 1JH",
      "phone": "",
      "website": "",
      "cuisine": "italian",
      "opening_hours": "",
      "wheelchair_accessible": "yes"
    },
    {
      "name": "Zizzi",
      "lat": 51.497441,
      "lon": -0.1407675,
      "address": "15, Cardinal Walk, London, SW1E 5JE",
      "phone": "+44 20 7821 0402",
      "website": "https://www.zizzi.co.uk/italian/restaurants/victoria",
      "cuisine": "italian",
      "opening_hours": "",
      "wheelchair_accessible": "yes"
    },
    {
      "name": "Nando's",
      "lat": 51.4976354,
      "lon": -0.1402214,
      "address": "17, Cardinal Walk, London, SW1E 5JE",
      "phone": "",
      "website": "https://www.nandos.co.uk/restaurants/victoria-cardinal-place",
      "cuisine": "chicken;portuguese",
      "opening_hours": "",
      "wheelchair_accessible": "yes"
    },
    {
      "name": "Osteria Tufo",
      "lat": 51.5659382,
      "lon": -0.1101431,
      "address": "Address not available",
      "phone": "",
      "website": "",
      "cuisine": "italian",
      "opening_hours": "",
      "wheelchair_accessible": "unknown"
    },
    {
      "name": "Stoplight",
      "lat": 51.5649814,
      "lon": -0.1036721,
      "address": "296, Seven Sisters Road, London, N4 2AA",
      "phone": "",
      "website": "",
      "cuisine": "caribbean",
      "opening_hours": "",
      "wheelchair_accessible": "unknown"
    },
    {
      "name": "Source",
      "lat": 51.4792983,
      "lon": -0.1681089,
      "address": "Address not available",
      "phone": "",
      "website": "http://www.sourcebattersea.com",
      "cuisine": "seasonal",
      "opening_hours": "Mo-Th 12:00-15:00,18:00-22:00;Fr 12:00-15:00,18:00-22:30;Sa 12:00-16:00,18:00-22:30;Su 12:00-16:00",
      "wheelchair_accessible": "unknown"
    },
    {
      "name": "PizzaExpress",
      "lat": 51.478862,
      "lon": -0.17064,
      "address": "46-54, Battersea Bridge Road, London, SW11 3AG",
      "phone": "",
      "website": "",
      "cuisine": "pizza",
      "opening_hours": "",
      "wheelchair_accessible": "yes"
    },
    {
      "name": "Donna Sofia",
      "lat": 51.5542179,
      "lon": -0.0979813,
      "address": "36, Highbury Park, London, N5 2AA",
      "phone": "+44 20 7354 9309",
      "website": "",
      "cuisine": "pizza",
      "opening_hours": "Su-Sa 12:00-23:00",
      "wheelchair_accessible": "unknown"
    },
    {
      "name": "Fig & Olive",
      "lat": 51.5402302,
      "lon": -0.1027841,
      "address": "151, Upper Street, London, N1 1RA",
      "phone": "",
      "website": "",
      "cuisine": "",
      "opening_hours": "",
      "wheelchair_accessible": "yes"
    },
    {
      "name": "SKÅL",
      "lat": 51.540105,
      "lon": -0.1027567,
      "address": "Address not available",
      "phone": "",
      "website": "https://www.skalnordicdining.co.uk/",
      "cuisine": "swedish",
      "opening_hours": "Tu-Fr 17:00-23:00; Sa 12:00-15:00,17:00-23:00",
      "wheelchair_accessible": "unknown"
    },
    {
      "name": "Rabieng Thai",
      "lat": 51.5398419,
      "lon": -0.1026516,
      "address": "143, Upper Street, London, N1 1QY",
      "phone": "",
      "website": "",
      "cuisine": "thai",
      "opening_hours": "",
      "wheelchair_accessible": "yes"
    },
    {
      "name": "Thai Square",
      "lat": 51.5074016,
      "lon": -0.1299579,
      "address": "21-24, Cockspur Street, London, SW1Y 5BN",
      "phone": "",
      "website": "",
      "cuisine": "thai",
      "opening_hours": "",
      "wheelchair_accessible": "yes"
    },
    {
      "name": "PizzaExpress",
      "lat": 51.508406,
      "lon": -0.126123,
      "address": "450, The Strand, London",
      "phone": "+44 20 7930 8205",
      "website": "",
      "cuisine": "pizza",
      "opening_hours": "Mo-We 11:30-22:30; Th-Sa 11:30-23:00; Su 11:30-22:00",
      "wheelchair_accessible": "limited"
    },
    {
      "name": "Tbilisi",
      "lat": 51.5478856,
      "lon": -0.1063884,
      "address": "91, Holloway Road, London, N7 8LT",
      "phone": "",
      "website": "",
      "cuisine": "georgian",
      "opening_hours": "Mo-Su 18:00-23:00",
      "wheelchair_accessible": "unknown"
    },
    {
      "name": "Nem Nem",
      "lat": 51.5400827,
      "lon": -0.1023191,
      "address": "279, Upper Street, London, N1 2TZ",
      "phone": "",
      "website": "",
      "cuisine": "vietnamese",
      "opening_hours": "",
      "wheelchair_accessible": "unknown"
    },
    {
      "name": "La Petite Auberge",
      "lat": 51.5399024,
      "lon": -0.1022794,
      "address": "283, Upper Street, London, N1 2TZ",
      "phone": "",
      "website": "",
      "cuisine": "french",
      "opening_hours": "",
      "wheelchair_accessible": "unknown"
    },
    {
      "name": "Ottoman Kebab Box",
      "lat": 51.5370348,
      "lon": -0.103352,
      "address": "89, Upper Street, London, N1 0NP",
      "phone": "",
      "website": "",
      "cuisine": "",
      "opening_hours": "",
      "wheelchair_accessible": "unknown"
    },
    {
      "name": "La Farola",
      "lat": 51.5376235,
      "lon": -0.1029861,
      "address": "101, Upper Street, London, N1 1QN",
      "phone": "+44 20 7359 7707",
      "website": "https://lafarolacafe.co.uk/",
      "cuisine": "tapas",
      "opening_hours": "Mo-Th 11:00-23:00; Fr 11:00-00:00; Sa 09:00-00:00; Su 09:00-22:30",
      "wheelchair_accessible": "no"
    },
    {
      "name": "1251",
      "lat": 51.537884,
      "lon": -0.1028048,
      "address": "107, Upper Street, London, N1 1QN",
      "phone": "",
      "website": "",
      "cuisine": "",
      "opening_hours": "",
      "wheelchair_accessible": "no"
    },
    {
      "name": "Café Gallipoli Again",
      "lat": 51.5385698,
      "lon": -0.1025086,
      "address": "120, Upper Street, London, N1 1QP",
      "phone": "+44 20 7359 1578",
      "website": "",
      "cuisine": "turkish",
      "opening_hours": "",
      "wheelchair_accessible": "unknown"
    },
    {
      "name": "Al Dente Pastificio",
      "lat": 51.5335893,
      "lon": -0.1060278,
      "address": "4a, Upper Street, London, N1 0PN",
      "phone": "",
      "website": "",
      "cuisine": "italian",
      "opening_hours": "",
      "wheelchair_accessible": "unknown"
    },
    {
      "name": "Desperados",
      "lat": 51.5359355,
      "lon": -0.1039344,
      "address": "Address not available",
      "phone": "",
      "website": "",
      "cuisine": "mexican",
      "opening_hours": "",
      "wheelchair_accessible": "unknown"
    },
    {
      "name": "Pho",
      "lat": 51.534842,
      "lon": -0.1049273,
      "address": "Address not available",
      "phone": "",
      "website": "",
      "cuisine": "vietnamese",
      "opening_hours": "Mo-Sa 12:00-23:00, Su 12:00-22:00",
      "wheelchair_accessible": "unknown"
    },
    {
      "name": "Pizza Hut",
      "lat": 51.5108246,
      "lon": -0.1294685,
      "address": "19, Leicester Square, London, WC2H 7LE",
      "phone": "+44 20 7930 9114",
      "website": "",
      "cuisine": "pizza",
      "opening_hours": "Mo-Su 11:00-22:45; Th-Sa 11:00-23:30",
      "wheelchair_accessible": "limited"
    },
    {
      "name": "Angus Steakhouse",
      "lat": 51.5100549,
      "lon": -0.1329228,
      "address": "Address not available",
      "phone": "",
      "website": "",
      "cuisine": "",
      "opening_hours": "",
      "wheelchair_accessible": "unknown"
    },
    {
      "name": "HAPPY",
      "lat": 51.5101296,
      "lon": -0.1324716,
      "address": "25-29, Coventry Street, London, W1D 7AG",
      "phone": "+44 20 3883 7874",
      "website": "https://happyrestaurants.com/",
      "cuisine": "burger;chicken;international;seafood;fish_and_chips",
      "opening_hours": "Mo-Sa 12:00-23:00",
      "wheelchair_accessible": "yes"
    },
    {
      "name": "The Refinery",
      "lat": 51.5158982,
      "lon": -0.1080904,
      "address": "12, Great New Street, London, EC4A 3BN",
      "phone": "",
      "website": "",
      "cuisine": "",
      "opening_hours": "",
      "wheelchair_accessible": "unknown"
    },
    {
      "name": "Natural Kitchen",
      "lat": 51.5156512,
      "lon": -0.1086168,
      "address": "1-3, Nevill Lane, London, EC4A 3AP",
      "phone": "",
      "website": "",
      "cuisine": "",
      "opening_hours": "Mo-Fr 07:00-16:00",
      "wheelchair_accessible": "unknown"
    },
    {
      "name": "Byron Burgers",
      "lat": 51.5120973,
      "lon": -0.1207484,
      "address": "33-35, Wellington Street, London, WC2E 7BN",
      "phone": "",
      "website": "https://www.byronhamburgers.com",
      "cuisine": "burger",
      "opening_hours": "",
      "wheelchair_accessible": "yes"
    },
    {
      "name": "Zen Mondo",
      "lat": 51.5369612,
      "lon": -0.1029829,
      "address": "Address not available",
      "phone": "",
      "website": "https://www.zenmondo.co.uk/",
      "cuisine": "japanese",
      "opening_hours": "Mo,Su off; Tu-Sa 17:00-22:00",
      "wheelchair_accessible": "unknown"
    },
    {
      "name": "zaffrani",
      "lat": 51.5391673,
      "lon": -0.1012364,
      "address": "Address not available",
      "phone": "",
      "website": "",
      "cuisine": "indian",
      "opening_hours": "",
      "wheelchair_accessible": "unknown"
    },
    {
      "name": "Roma",
      "lat": 51.5491954,
      "lon": -0.1081436,
      "address": "Address not available",
      "phone": "",
      "website": "",
      "cuisine": "",
      "opening_hours": "",
      "wheelchair_accessible": "unknown"
    },
    {
      "name": "Fish Inn",
      "lat": 51.4205708,
      "lon": -0.1756395,
      "address": "43, High Street Colliers Wood, London, SW19 2JE",
      "phone": "",
      "website": "",
      "cuisine": "fish_and_chips",
      "opening_hours": "",
      "wheelchair_accessible": "unknown"
    },
    {
      "name": "Nón",
      "lat": 51.5467447,
      "lon": -0.1045325,
      "address": "39, Holloway Road, London, N7 8JP",
      "phone": "",
      "website": "",
      "cuisine": "vietnamese",
      "opening_hours": "",
      "wheelchair_accessible": "unknown"
    },
    {
      "name": "Berto",
      "lat": 51.5495339,
      "lon": -0.1085513,
      "address": "155, Holloway Road, London, N7 8LX",
      "phone": "",
      "website": "https://berto.uk",
      "cuisine": "italian",
      "opening_hours": "",
      "wheelchair_accessible": "unknown"
    },
    {
      "name": "Emperor",
      "lat": 51.549711,
      "lon": -0.1087655,
      "address": "163, Holloway Road, London, N7 8LX",
      "phone": "",
      "website": "",
      "cuisine": "chinese",
      "opening_hours": "",
      "wheelchair_accessible": "unknown"
    },
    {
      "name": "Lamezia",
      "lat": 51.5497537,
      "lon": -0.1088196,
      "address": "165, Holloway Road, London, N7 8LX",
      "phone": "",
      "website": "",
      "cuisine": "pizza",
      "opening_hours": "",
      "wheelchair_accessible": "unknown"
    },
    {
      "name": "Sambal to go",
      "lat": 51.5498429,
      "lon": -0.1089235,
      "address": "Address not available",
      "phone": "",
      "website": "",
      "cuisine": "",
      "opening_hours": "",
      "wheelchair_accessible": "unknown"
    },
    {
      "name": "Sambal Shiok Laksa Bar",
      "lat": 51.5498868,
      "lon": -0.1089817,
      "address": "171, Holloway Road",
      "phone": "+44 20 7619 9888",
      "website": "https://www.sambalshiok.co.uk/",
      "cuisine": "malaysian",
      "opening_hours": "We-Sa 16:00-21:00",
      "wheelchair_accessible": "unknown"
    },
    {
      "name": "La Fenice",
      "lat": 51.5263992,
      "lon": -0.1406901,
      "address": "Address not available",
      "phone": "",
      "website": "",
      "cuisine": "italian",
      "opening_hours": "",
      "wheelchair_accessible": "unknown"
    },
    {
      "name": "Da Paolo",
      "lat": 51.5189362,
      "lon": -0.1361415,
      "address": "3, Charlotte Place, London, W1T 1SD",
      "phone": "+44 20 7580 0021",
      "website": "https://www.dapaolo.co.uk/",
      "cuisine": "italian",
      "opening_hours": "",
      "wheelchair_accessible": "unknown"
    },
    {
      "name": "8 Hoxton Square",
      "lat": 51.5278419,
      "lon": -0.0816372,
      "address": "8, Hoxton Square, London, N1 6NU",
      "phone": "+44 20 7729 4232",
      "website": "https://8hoxtonsquare.com/",
      "cuisine": "",
      "opening_hours": "",
      "wheelchair_accessible": "unknown"
    },
    {
      "name": "Cottons",
      "lat": 51.5272599,
      "lon": -0.0810456,
      "address": "45-47, Hoxton Square, London, N1 6PD",
      "phone": "",
      "website": "https://www.cottons-restaurant.co.uk/",
      "cuisine": "caribbean",
      "opening_hours": "",
      "wheelchair_accessible": "unknown"
    },
    {
      "name": "Battersea Grill",
      "lat": 51.4783358,
      "lon": -0.1701594,
      "address": "70, Battersea Bridge Road, London, SW11 3AG",
      "phone": "",
      "website": "",
      "cuisine": "",
      "opening_hours": "",
      "wheelchair_accessible": "unknown"
    },
    {
      "name": "Mansoon",
      "lat": 51.4782369,
      "lon": -0.169614,
      "address": "Address not available",
      "phone": "",
      "website": "",
      "cuisine": "indian",
      "opening_hours": "",
      "wheelchair_accessible": "unknown"
    },
    {
      "name": "YO! Sushi",
      "lat": 51.5133205,
      "lon": -0.0999854,
      "address": "5, Saint Paul's Church Yard, London, EC4M 8AY",
      "phone": "",
      "website": "",
      "cuisine": "sushi",
      "opening_hours": "",
      "wheelchair_accessible": "yes"
    },
    {
      "name": "PizzaExpress",
      "lat": 51.5127516,
      "lon": -0.083609,
      "address": "20-22, Leadenhall Market, London, EC3V 1LR",
      "phone": "",
      "website": "https://www.pizzaexpress.com/london-leadenhall-market",
      "cuisine": "pizza",
      "opening_hours": "Mo 12:00-21:00; Tu-Th 11:30-23:00; Fr 11:30-21:00; Sa 12:00-20:00",
      "wheelchair_accessible": "limited"
    },
    {
      "name": "Sweet Lemon",
      "lat": 51.5655495,
      "lon": -0.0739522,
      "address": "5A, Manor Parade, London",
      "phone": "",
      "website": "",
      "cuisine": "indian",
      "opening_hours": "",
      "wheelchair_accessible": "unknown"
    },
    {
      "name": "Itto",
      "lat": 51.56318,
      "lon": -0.0730535,
      "address": "226, Stoke Newington High Street, London, N16 7HU",
      "phone": "",
      "website": "",
      "cuisine": "noodle",
      "opening_hours": "",
      "wheelchair_accessible": "unknown"
    },
    {
      "name": "Wander",
      "lat": 51.5628273,
      "lon": -0.0732736,
      "address": "214, Stoke Newington High Street, London, N16 7HU",
      "phone": "",
      "website": "",
      "cuisine": "",
      "opening_hours": "",
      "wheelchair_accessible": "unknown"
    },
    {
      "name": "19 Numara Bos Cirrik II",
      "lat": 51.5622719,
      "lon": -0.0733812,
      "address": "194, Stoke Newington High Street, London, N16 7JD",
      "phone": "",
      "website": "",
      "cuisine": "turkish",
      "opening_hours": "",
      "wheelchair_accessible": "unknown"
    },
    {
      "name": "Franco Manca",
      "lat": 51.5616499,
      "lon": -0.0735261,
      "address": "176, Stoke Newington High Street, London, N16 7JL",
      "phone": "",
      "website": "https://www.francomanca.co.uk/restaurants/stoke-newington/",
      "cuisine": "pizza",
      "opening_hours": "",
      "wheelchair_accessible": "unknown"
    },
    {
      "name": "Viet Garden",
      "lat": 51.5391032,
      "lon": -0.1069321,
      "address": "205-207, Liverpool Road, London, N1 1LX",
      "phone": "",
      "website": "",
      "cuisine": "vietnamese",
      "opening_hours": "",
      "wheelchair_accessible": "no"
    },
    {
      "name": "The Fishery Fish Bar",
      "lat": 51.5594639,
      "lon": -0.0739318,
      "address": "90, Stoke Newington High Street, London, N16 7NY",
      "phone": "",
      "website": "",
      "cuisine": "fish_and_chips",
      "opening_hours": "",
      "wheelchair_accessible": "unknown"
    },
    {
      "name": "Testi",
      "lat": 51.5581648,
      "lon": -0.0741243,
      "address": "38, Stoke Newington High Street, London, N16 7PL",
      "phone": "",
      "website": "",
      "cuisine": "turkish",
      "opening_hours": "",
      "wheelchair_accessible": "no"
    },
    {
      "name": "Victory Mansion",
      "lat": 51.5577212,
      "lon": -0.0741699,
      "address": "18, Stoke Newington High Street, London, N16 7PL",
      "phone": "",
      "website": "",
      "cuisine": "",
      "opening_hours": "",
      "wheelchair_accessible": "limited"
    },
    {
      "name": "Kiss the Koala",
      "lat": 51.5871923,
      "lon": -0.1323115,
      "address": "163, Priory Road, London, N8 8NB",
      "phone": "",
      "website": "https://www.kissthekoala.co.uk",
      "cuisine": "",
      "opening_hours": "",
      "wheelchair_accessible": "unknown"
    },
    {
      "name": "Dinings",
      "lat": 51.5198229,
      "lon": -0.1647066,
      "address": "22, Harcourt Street",
      "phone": "",
      "website": "https://dinings.co.uk/",
      "cuisine": "japanese",
      "opening_hours": "",
      "wheelchair_accessible": "unknown"
    },
    {
      "name": "Brawn",
      "lat": 51.528927,
      "lon": -0.070261,
      "address": "49, Columbia Road, London, E2 7RG",
      "phone": "",
      "website": "https://www.brawn.co/",
      "cuisine": "",
      "opening_hours": "",
      "wheelchair_accessible": "unknown"
    },
    {
      "name": "New World",
      "lat": 51.5123678,
      "lon": -0.1303581,
      "address": "1, Gerrard Place, London, W1D 5PA",
      "phone": "",
      "website": "",
      "cuisine": "chinese",
      "opening_hours": "",
      "wheelchair_accessible": "unknown"
    },
    {
      "name": "Rasa Street",
      "lat": 51.562252,
      "lon": -0.0763418,
      "address": "60-62, Stoke Newington Church Street, London, N16 0NB",
      "phone": "",
      "website": "",
      "cuisine": "",
      "opening_hours": "",
      "wheelchair_accessible": "unknown"
    },
    {
      "name": "Royal India",
      "lat": 51.5620821,
      "lon": -0.0758697,
      "address": "47, Stoke Newington Church Street, London, N16 0NX",
      "phone": "",
      "website": "",
      "cuisine": "indian",
      "opening_hours": "",
      "wheelchair_accessible": "no"
    },
    {
      "name": "Fuji",
      "lat": 51.5619397,
      "lon": -0.0744908,
      "address": "15, London, N16 0NX",
      "phone": "+44 20 7254 6093",
      "website": "https://www.fujirestaurant.co.uk/",
      "cuisine": "japanese",
      "opening_hours": "Mo-Th 17:00-22:00; Fr 17:00-22:30; Sa 13:00-22:30; Su 13:00-22:00",
      "wheelchair_accessible": "yes"
    },
    {
      "name": "Meze Kitchen",
      "lat": 51.4440935,
      "lon": -0.1502324,
      "address": "37, Bedford Hill",
      "phone": "",
      "website": "",
      "cuisine": "greek",
      "opening_hours": "",
      "wheelchair_accessible": "unknown"
    },
    {
      "name": "Dirty Bones",
      "lat": 51.5239594,
      "lon": -0.0741731,
      "address": "1, Club Row, London, E1 6JX",
      "phone": "",
      "website": "https://dirty-bones.com/",
      "cuisine": "",
      "opening_hours": "Mo-We 11:00-23:00; Th-Fr 11:00-00:00; Sa 10:00-00:00; Su 10:00-23:00",
      "wheelchair_accessible": "no"
    },
    {
      "name": "Asta 3",
      "lat": 51.5154484,
      "lon": -0.0755052,
      "address": "5, Middlesex Street, London, E1 7AA",
      "phone": "",
      "website": "",
      "cuisine": "japanese",
      "opening_hours": "",
      "wheelchair_accessible": "unknown"
    },
    {
      "name": "The Two Brothers",
      "lat": 51.5991604,
      "lon": -0.1964918,
      "address": "297-303, Regents Park Road",
      "phone": "",
      "website": "",
      "cuisine": "fish",
      "opening_hours": "Tu-Su 12:00-14:30,17:30-22:00",
      "wheelchair_accessible": "unknown"
    },
    {
      "name": "Nile Restaurant",
      "lat": 51.4745149,
      "lon": -0.1325109,
      "address": "Address not available",
      "phone": "",
      "website": "",
      "cuisine": "egyptian",
      "opening_hours": "",
      "wheelchair_accessible": "unknown"
    },
    {
      "name": "Orit Ethiopian Restaurant & Bar",
      "lat": 51.4708688,
      "lon": -0.1381623,
      "address": "Address not available",
      "phone": "",
      "website": "",
      "cuisine": "",
      "opening_hours": "",
      "wheelchair_accessible": "unknown"
    },
    {
      "name": "Branded",
      "lat": 51.4080493,
      "lon": -0.0250963,
      "address": "51, High Street, Beckenham, BR3 1AW",
      "phone": "",
      "website": "https://brandedsteaks.co.uk/",
      "cuisine": "steak_house",
      "opening_hours": "",
      "wheelchair_accessible": "unknown"
    },
    {
      "name": "Pierluigi's",
      "lat": 51.4081653,
      "lon": -0.0254291,
      "address": "86-90, High Street, Beckenham, BR3 1ED",
      "phone": "",
      "website": "",
      "cuisine": "italian",
      "opening_hours": "",
      "wheelchair_accessible": "unknown"
    },
    {
      "name": "Refuel",
      "lat": 51.5141462,
      "lon": -0.1337974,
      "address": "Address not available",
      "phone": "",
      "website": "",
      "cuisine": "",
      "opening_hours": "",
      "wheelchair_accessible": "unknown"
    },
    {
      "name": "Nando's",
      "lat": 51.5163212,
      "lon": -0.1359571,
      "address": "2, Berners Street, London, W1T 3LF",
      "phone": "",
      "website": "https://www.nandos.co.uk/restaurants/berners-street",
      "cuisine": "chicken;portuguese",
      "opening_hours": "",
      "wheelchair_accessible": "unknown"
    },
    {
      "name": "Enish",
      "lat": 51.5163911,
      "lon": -0.1360022,
      "address": "3, Berners Street",
      "phone": "+44 20 3771 8665",
      "website": "https://www.enish.co.uk",
      "cuisine": "nigerian",
      "opening_hours": "",
      "wheelchair_accessible": "unknown"
    },
    {
      "name": "Mihan",
      "lat": 51.5578989,
      "lon": -0.0983024,
      "address": "104, Highbury Park",
      "phone": "",
      "website": "",
      "cuisine": "",
      "opening_hours": "",
      "wheelchair_accessible": "unknown"
    },
    {
      "name": "Au lac",
      "lat": 51.557254,
      "lon": -0.097922,
      "address": "82, Highbury Park",
      "phone": "+44 20 7704 9187",
      "website": "https://aulac.co.uk/",
      "cuisine": "vietnamese",
      "opening_hours": "",
      "wheelchair_accessible": "unknown"
    },
    {
      "name": "Brinkley's Kitchen",
      "lat": 51.4438433,
      "lon": -0.1678004,
      "address": "35, Bellevue Road, London, SW17 7EF",
      "phone": "",
      "website": "",
      "cuisine": "",
      "opening_hours": "",
      "wheelchair_accessible": "unknown"
    },
    {
      "name": "Chez Bruce",
      "lat": 51.4460277,
      "lon": -0.1656656,
      "address": "2, Bellevue Road, London, SW17 7EG",
      "phone": "",
      "website": "",
      "cuisine": "",
      "opening_hours": "",
      "wheelchair_accessible": "limited"
    },
    {
      "name": "Prezzo",
      "lat": 51.49457,
      "lon": -0.1457831,
      "address": "Address not available",
      "phone": "",
      "website": "",
      "cuisine": "italian",
      "opening_hours": "",
      "wheelchair_accessible": "unknown"
    },
    {
      "name": "Pronto a Mangia",
      "lat": 51.4989784,
      "lon": -0.1431015,
      "address": "11, Buckingham Palace Road, London, SW1W 0PP",
      "phone": "",
      "website": "",
      "cuisine": "italian",
      "opening_hours": "",
      "wheelchair_accessible": "unknown"
    },
    {
      "name": "Camden Diner",
      "lat": 51.5406973,
      "lon": -0.1446491,
      "address": "2-2A, Jamestown Road, London, NW1 7BY",
      "phone": "",
      "website": "",
      "cuisine": "american",
      "opening_hours": "Fr-Sa 09:00-00:00; Su-Th 09:00-23:00",
      "wheelchair_accessible": "limited"
    },
    {
      "name": "Kikuchi",
      "lat": 51.5169332,
      "lon": -0.131671,
      "address": "14, Hanway Street, London, W1T 1UD",
      "phone": "+44 20 7637 7720",
      "website": "https://www.kikuchisushi.com/",
      "cuisine": "japanese",
      "opening_hours": "",
      "wheelchair_accessible": "unknown"
    },
    {
      "name": "Taru",
      "lat": 51.5409666,
      "lon": -0.0761301,
      "address": "376, Kingsland Road, London, E8 4AA",
      "phone": "",
      "website": "https://www.taru.uk/",
      "cuisine": "japanese",
      "opening_hours": "",
      "wheelchair_accessible": "unknown"
    },
    {
      "name": "Côte Brasserie",
      "lat": 51.5019612,
      "lon": -0.1889183,
      "address": "47, Kensington Court",
      "phone": "+44 20 7938 4147",
      "website": "https://www.cote.co.uk/restaurant/kensington",
      "cuisine": "french",
      "opening_hours": "",
      "wheelchair_accessible": "unknown"
    },
    {
      "name": "Fouberts",
      "lat": 51.5022675,
      "lon": -0.1882594,
      "address": "17, Kensington High Street",
      "phone": "+44 20 7937 2762",
      "website": "https://www.foubertsrestaurant.co.uk/",
      "cuisine": "italian",
      "opening_hours": "",
      "wheelchair_accessible": "unknown"
    },
    {
      "name": "Zaika",
      "lat": 51.5021632,
      "lon": -0.1874698,
      "address": "1, Kensington High Street, London, W8 5NP",
      "phone": "+44 20 7795 6533",
      "website": "https://zaikaofkensington.com/",
      "cuisine": "indian",
      "opening_hours": "",
      "wheelchair_accessible": "unknown"
    },
    {
      "name": "Brunello Bar and Restaurant",
      "lat": 51.5017242,
      "lon": -0.1848227,
      "address": "60, Hyde Park Gate",
      "phone": "",
      "website": "",
      "cuisine": "italian",
      "opening_hours": "",
      "wheelchair_accessible": "unknown"
    },
    {
      "name": "Jai Krishna",
      "lat": 51.5700857,
      "lon": -0.114262,
      "address": "Address not available",
      "phone": "",
      "website": "",
      "cuisine": "indian",
      "opening_hours": "",
      "wheelchair_accessible": "unknown"
    },
    {
      "name": "Il Picolo Diavolo",
      "lat": 51.5698146,
      "lon": -0.1136177,
      "address": "147, Stroud Green Road",
      "phone": "",
      "website": "https://www.ilpiccolodiavolo.co.uk/",
      "cuisine": "italian",
      "opening_hours": "",
      "wheelchair_accessible": "unknown"
    },
    {
      "name": "Pappagone",
      "lat": 51.5694564,
      "lon": -0.1128017,
      "address": "131, Stroud Green Road",
      "phone": "+44 20 7263 2114",
      "website": "http://www.pizzeriapappagone.co.uk",
      "cuisine": "italian",
      "opening_hours": "",
      "wheelchair_accessible": "unknown"
    },
    {
      "name": "The Chippy",
      "lat": 51.5693235,
      "lon": -0.1125006,
      "address": "Address not available",
      "phone": "",
      "website": "",
      "cuisine": "fish_and_chips",
      "opening_hours": "",
      "wheelchair_accessible": "unknown"
    },
    {
      "name": "Luna Llena",
      "lat": 51.569247,
      "lon": -0.1123093,
      "address": "119, Stroud Green Road",
      "phone": "",
      "website": "",
      "cuisine": "spanish",
      "opening_hours": "",
      "wheelchair_accessible": "unknown"
    },
    {
      "name": "Nigerian Kitchen",
      "lat": 51.5646341,
      "lon": -0.1051425,
      "address": "Address not available",
      "phone": "",
      "website": "",
      "cuisine": "african",
      "opening_hours": "",
      "wheelchair_accessible": "unknown"
    },
    {
      "name": "Dotori",
      "lat": 51.5647332,
      "lon": -0.1051818,
      "address": "Address not available",
      "phone": "",
      "website": "https://www.dotori.co.uk/",
      "cuisine": "korean;japanese",
      "opening_hours": "",
      "wheelchair_accessible": "unknown"
    },
    {
      "name": "La Viña",
      "lat": 51.5778051,
      "lon": -0.1043561,
      "address": "3, Wightman Road, London, N4 1RQ",
      "phone": "+44 20 8340 5400",
      "website": "",
      "cuisine": "spanish",
      "opening_hours": "Mo-Sa 17:00-00:00;Su 12:00-23:00",
      "wheelchair_accessible": "unknown"
    },
    {
      "name": "Bill's",
      "lat": 51.4195848,
      "lon": -0.2052654,
      "address": "20, Hartfield Road, London, SW19 3TA",
      "phone": "+44 20 8947 8285",
      "website": "https://bills-website.co.uk/restaurants/london-wimbledon/",
      "cuisine": "british",
      "opening_hours": "Mo-Sa 08:00-23:00; Su 08:00-22:30",
      "wheelchair_accessible": "unknown"
    },
    {
      "name": "Salsa!",
      "lat": 51.5140094,
      "lon": -0.1292936,
      "address": "Address not available",
      "phone": "",
      "website": "https://www.bar-salsa.com/soho",
      "cuisine": "spanish",
      "opening_hours": "",
      "wheelchair_accessible": "unknown"
    },
    {
      "name": "The Shannon",
      "lat": 51.5546425,
      "lon": -0.2130946,
      "address": "Address not available",
      "phone": "",
      "website": "",
      "cuisine": "indian",
      "opening_hours": "",
      "wheelchair_accessible": "unknown"
    },
    {
      "name": "Zeytoon",
      "lat": 51.5548127,
      "lon": -0.2128252,
      "address": "Address not available",
      "phone": "",
      "website": "",
      "cuisine": "afghan;persian",
      "opening_hours": "",
      "wheelchair_accessible": "unknown"
    },
    {
      "name": "84 West Brasserie & Grill",
      "lat": 51.5545352,
      "lon": -0.2124647,
      "address": "82-84, Cricklewood Broadway, London, NW2 3EL",
      "phone": "+44 20 8452 4689",
      "website": "https://www.84west.co.uk/index.html",
      "cuisine": "african",
      "opening_hours": "",
      "wheelchair_accessible": "unknown"
    },
    {
      "name": "Vali's Four Seasons",
      "lat": 51.5540877,
      "lon": -0.2126432,
      "address": "73",
      "phone": "",
      "website": "",
      "cuisine": "",
      "opening_hours": "",
      "wheelchair_accessible": "unknown"
    },
    {
      "name": "Top Wok",
      "lat": 51.5542397,
      "lon": -0.2121643,
      "address": "Address not available",
      "phone": "",
      "website": "",
      "cuisine": "chinese",
      "opening_hours": "",
      "wheelchair_accessible": "unknown"
    },
    {
      "name": "Milad",
      "lat": 51.5539721,
      "lon": -0.2124788,
      "address": "Address not available",
      "phone": "",
      "website": "",
      "cuisine": "persian",
      "opening_hours": "",
      "wheelchair_accessible": "unknown"
    },
    {
      "name": "Khana",
      "lat": 51.5541157,
      "lon": -0.2120524,
      "address": "Address not available",
      "phone": "",
      "website": "",
      "cuisine": "indian",
      "opening_hours": "",
      "wheelchair_accessible": "unknown"
    },
    {
      "name": "Lininiya",
      "lat": 51.5540763,
      "lon": -0.2120184,
      "address": "66, Cricklewood Broadway",
      "phone": "",
      "website": "",
      "cuisine": "sri_lankan",
      "opening_hours": "",
      "wheelchair_accessible": "unknown"
    },
    {
      "name": "Mango Grills",
      "lat": 51.5537385,
      "lon": -0.2116698,
      "address": "58, Cricklewood Broadway",
      "phone": "",
      "website": "",
      "cuisine": "lebanese",
      "opening_hours": "",
      "wheelchair_accessible": "unknown"
    },
    {
      "name": "D'Den",
      "lat": 51.5533076,
      "lon": -0.2116543,
      "address": "47, Cricklewood Broadway",
      "phone": "",
      "website": "",
      "cuisine": "african",
      "opening_hours": "",
      "wheelchair_accessible": "unknown"
    },
    {
      "name": "Persia Restaurant",
      "lat": 51.5532813,
      "lon": -0.2116176,
      "address": "Cricklewood Broadway",
      "phone": "",
      "website": "",
      "cuisine": "persian",
      "opening_hours": "",
      "wheelchair_accessible": "unknown"
    },
    {
      "name": "Taste of Lahore",
      "lat": 51.5533273,
      "lon": -0.2111705,
      "address": "38, Cricklewood Broadway",
      "phone": "",
      "website": "",
      "cuisine": "pakistani",
      "opening_hours": "",
      "wheelchair_accessible": "unknown"
    },
    {
      "name": "Abyssinia",
      "lat": 51.5525452,
      "lon": -0.2106267,
      "address": "9, Cricklewood Broadway",
      "phone": "",
      "website": "",
      "cuisine": "ethiopian",
      "opening_hours": "",
      "wheelchair_accessible": "unknown"
    },
    {
      "name": "Villa Carioca",
      "lat": 51.5524925,
      "lon": -0.2105514,
      "address": "Cricklewood Broadway",
      "phone": "",
      "website": "",
      "cuisine": "",
      "opening_hours": "",
      "wheelchair_accessible": "unknown"
    },
    {
      "name": "Bar + Block",
      "lat": 51.5317695,
      "lon": -0.1223238,
      "address": "York Way, London",
      "phone": "",
      "website": "",
      "cuisine": "steak_house;breakfast",
      "opening_hours": "",
      "wheelchair_accessible": "yes"
    },
    {
      "name": "Giraffe",
      "lat": 51.4938754,
      "lon": -0.1421738,
      "address": "120, Wilton Road, London, SW1V 1JZ",
      "phone": "",
      "website": "https://www.giraffe.net",
      "cuisine": "",
      "opening_hours": "",
      "wheelchair_accessible": "unknown"
    },
    {
      "name": "Raka Indian Cuisine",
      "lat": 51.4092057,
      "lon": -0.2134653,
      "address": "306, Kingston Road, London, SW20 8LX",
      "phone": "+44 20 8542 7717",
      "website": "https://www.raka.co.uk/",
      "cuisine": "indian",
      "opening_hours": "Mo-Su,PH 17:30-23:00",
      "wheelchair_accessible": "unknown"
    },
    {
      "name": "Franco Manca",
      "lat": 51.4059389,
      "lon": 0.0160931,
      "address": "10, Widmore Road, Bromley, BR1 1RY",
      "phone": "",
      "website": "https://www.francomanca.co.uk/restaurants/bromley/",
      "cuisine": "pizza",
      "opening_hours": "",
      "wheelchair_accessible": "unknown"
    },
    {
      "name": "ETNA",
      "lat": 51.4015111,
      "lon": 0.0159352,
      "address": "60, High Street, Bromley, BR1 1EG",
      "phone": "",
      "website": "",
      "cuisine": "italian",
      "opening_hours": "Mo,Su 12:00-21:00; Tu-Sa 12:00-22:00",
      "wheelchair_accessible": "unknown"
    },
    {
      "name": "The Diners Inn",
      "lat": 51.4059532,
      "lon": 0.0135717,
      "address": "206, High Street, Bromley, BR1 1PW",
      "phone": "",
      "website": "",
      "cuisine": "",
      "opening_hours": "",
      "wheelchair_accessible": "unknown"
    },
    {
      "name": "Toast",
      "lat": 51.4063105,
      "lon": 0.0129164,
      "address": "226, High Street, Bromley, BR1 1PQ",
      "phone": "",
      "website": "",
      "cuisine": "cafe",
      "opening_hours": "",
      "wheelchair_accessible": "unknown"
    },
    {
      "name": "Mixta",
      "lat": 51.4063824,
      "lon": 0.0127882,
      "address": "230, High Street, Bromley, BR1 1PQ",
      "phone": "",
      "website": "",
      "cuisine": "brazilian;portuguese",
      "opening_hours": "",
      "wheelchair_accessible": "unknown"
    },
    {
      "name": "Bowl O Pho",
      "lat": 51.4064546,
      "lon": 0.0126483,
      "address": "234, High Street, Bromley, BR1 1PQ",
      "phone": "",
      "website": "",
      "cuisine": "vietnamese",
      "opening_hours": "",
      "wheelchair_accessible": "unknown"
    },
    {
      "name": "Blue Harbour",
      "lat": 51.4068222,
      "lon": 0.0121023,
      "address": "250, High Street, Bromley, BR1 1PG",
      "phone": "",
      "website": "",
      "cuisine": "fish",
      "opening_hours": "",
      "wheelchair_accessible": "unknown"
    },
    {
      "name": "Mount Everest",
      "lat": 51.4069899,
      "lon": 0.0118947,
      "address": "258, High Street, Bromley, BR1 1PG",
      "phone": "",
      "website": "",
      "cuisine": "indian",
      "opening_hours": "",
      "wheelchair_accessible": "unknown"
    },
    {
      "name": "Sanxia Chinese Restaurant & Bar",
      "lat": 51.4066506,
      "lon": 0.0127907,
      "address": "221, High Street, Bromley, BR1 1NZ",
      "phone": "",
      "website": "https://take-a-way.co.uk/menu/4444/Sanxia%20-%20Bromley/",
      "cuisine": "chinese",
      "opening_hours": "",
      "wheelchair_accessible": "unknown"
    },
    {
      "name": "Havet",
      "lat": 51.4062184,
      "lon": 0.01358,
      "address": "195 - 197, High Street, Bromley, BR1 1NN",
      "phone": "",
      "website": "",
      "cuisine": "turkish",
      "opening_hours": "",
      "wheelchair_accessible": "yes"
    },
    {
      "name": "Miso",
      "lat": 51.4065313,
      "lon": 0.0158506,
      "address": "10, East Street, Bromley, BR1 1QX",
      "phone": "",
      "website": "",
      "cuisine": "japanese",
      "opening_hours": "",
      "wheelchair_accessible": "limited"
    },
    {
      "name": "Cow And Pig",
      "lat": 51.4073689,
      "lon": 0.0162281,
      "address": "39, East Street, Bromley, BR1 1QQ",
      "phone": "",
      "website": "",
      "cuisine": "british",
      "opening_hours": "",
      "wheelchair_accessible": "no"
    },
    {
      "name": "Aqua Bar & Grill",
      "lat": 51.407598,
      "lon": 0.0163788,
      "address": "4-6, East Street, Bromley, BR1 1QN",
      "phone": "",
      "website": "",
      "cuisine": "mediterranean",
      "opening_hours": "",
      "wheelchair_accessible": "limited"
    },
    {
      "name": "Carved Dive",
      "lat": 51.4074549,
      "lon": 0.0166475,
      "address": "42, East Street, Bromley, BR1 1QW",
      "phone": "",
      "website": "",
      "cuisine": "",
      "opening_hours": "",
      "wheelchair_accessible": "unknown"
    },
    {
      "name": "Nam Thai",
      "lat": 51.4073528,
      "lon": 0.0165169,
      "address": "38A, East Street, Bromley, BR1 1QU",
      "phone": "",
      "website": "",
      "cuisine": "thai",
      "opening_hours": "Mo-Th 12:00-14:30,17:30-22:30; Fr-Sa 12:00-22:30; Su off",
      "wheelchair_accessible": "unknown"
    },
    {
      "name": "New India",
      "lat": 51.407024,
      "lon": 0.0162365,
      "address": "24, East Street, Bromley, BR1 1QU",
      "phone": "",
      "website": "",
      "cuisine": "indian",
      "opening_hours": "",
      "wheelchair_accessible": "limited"
    },
    {
      "name": "Treasure Of China",
      "lat": 51.4067076,
      "lon": 0.0153238,
      "address": "2, West Street, Bromley, BR1 1RF",
      "phone": "",
      "website": "",
      "cuisine": "chinese",
      "opening_hours": "",
      "wheelchair_accessible": "unknown"
    },
    {
      "name": "Olive Tree Cafe",
      "lat": 51.4008597,
      "lon": 0.0170229,
      "address": "21, High Street, Bromley, BR1 1LG",
      "phone": "",
      "website": "",
      "cuisine": "",
      "opening_hours": "",
      "wheelchair_accessible": "unknown"
    },
    {
      "name": "Ladurée",
      "lat": 51.5115385,
      "lon": -0.1223523,
      "address": "Address not available",
      "phone": "",
      "website": "",
      "cuisine": "macaroons",
      "opening_hours": "",
      "wheelchair_accessible": "limited"
    },
    {
      "name": "Carluccio's",
      "lat": 51.4251481,
      "lon": -0.2182473,
      "address": "25, High Street, London, SW19 5DX",
      "phone": "",
      "website": "https://www.carluccios.com/restaurants/london/wimbledon",
      "cuisine": "italian",
      "opening_hours": "Mo-Fr 07:30-23:00; Sa 08:00-23:00; Su 09:00-22:30",
      "wheelchair_accessible": "no"
    },
    {
      "name": "Giggling Squid",
      "lat": 51.42519,
      "lon": -0.2185676,
      "address": "26, High Street, London, SW19 5BY",
      "phone": "",
      "website": "https://www.gigglingsquid.com/restaurant/wimbledon/",
      "cuisine": "thai",
      "opening_hours": "",
      "wheelchair_accessible": "no"
    },
    {
      "name": "Cent Anni",
      "lat": 51.425311,
      "lon": -0.219229,
      "address": "33, High Street, London, SW19 5BY",
      "phone": "",
      "website": "https://centanni.co.uk/",
      "cuisine": "italian",
      "opening_hours": "",
      "wheelchair_accessible": "yes"
    },
    {
      "name": "The Fire Stables",
      "lat": 51.4261139,
      "lon": -0.2170882,
      "address": "27-29, Church Road, London, SW19 5DQ",
      "phone": "",
      "website": "https://www.firestables.co.uk/",
      "cuisine": "",
      "opening_hours": "",
      "wheelchair_accessible": "yes"
    },
    {
      "name": "Turtle Bay",
      "lat": 51.5119589,
      "lon": -0.3046345,
      "address": "Address not available",
      "phone": "+44 20 3067 0007",
      "website": "https://turtlebay.co.uk/restaurants/ealing",
      "cuisine": "",
      "opening_hours": "Mo-We,Su 11:00-23:00; Th 11:00-24:00; Fr-Sa 11:00-01:00",
      "wheelchair_accessible": "yes"
    },